"type": "feature", "properties": { "CBCC_Name": "Chakhaza", "CBCC_REF": "DA1-002-001", "District": "Dowa", "T/A": "Chakhaza ", "GVH": "Chakhaza", "Village": "Chakhaza", "Latitude": "-13.4448598", "Longitude": "33.6443594"}, geometry": { "type": "Point", "coordinates": [33.6443594, -13.4448598"] } }, 
"type": "feature", "properties": { "CBCC_Name": "Mbalasheka", "CBCC_REF": "DA1-002-002", "District": "Dowa", "T/A": "Chakhaza ", "GVH": "Chakhaza", "Village": "Mbalasheka", "Latitude": "-13.4285535", "Longitude": "33.6389937"}, geometry": { "type": "Point", "coordinates": [33.6389937, -13.4285535"] } }, 
"type": "feature", "properties": { "CBCC_Name": "Mangadzi", "CBCC_REF": "DA1-004-003", "District": "Dowa", "T/A": "Chakhaza ", "GVH": "Changunda", "Village": "Changunda", "Latitude": "-13.5369546", "Longitude": "33.5937494"}, geometry": { "type": "Point", "coordinates": [33.5937494, -13.5369546"] } }, 
"type": "feature", "properties": { "CBCC_Name": "Kaphiri", "CBCC_REF": "DA1-006-004", "District": "Dowa", "T/A": "Chakhaza ", "GVH": "Chazinga", "Village": "Chazimba", "Latitude": "-13.4500247", "Longitude": "33.4652044"}, geometry": { "type": "Point", "coordinates": [33.4652044, -13.4500247"] } }, 
"type": "feature", "properties": { "CBCC_Name": "Ndasauka", "CBCC_REF": "DA1-012-010", "District": "Dowa", "T/A": "Chakhaza ", "GVH": "Chikwawe", "Village": "Chikwawe", "Latitude": "-13.43738", "Longitude": "33.5960217"}, geometry": { "type": "Point", "coordinates": [33.5960217, -13.43738"] } }, 
"type": "feature", "properties": { "CBCC_Name": "Ntapu", "CBCC_REF": "DA1-013-011", "District": "Dowa", "T/A": "Chakhaza ", "GVH": "Chilawo", "Village": "Chilawo", "Latitude": "-13.4802929", "Longitude": "33.6470388"}, geometry": { "type": "Point", "coordinates": [33.6470388, -13.4802929"] } }, 
"type": "feature", "properties": { "CBCC_Name": "Mnyanje", "CBCC_REF": "DA1-017-013", "District": "Dowa", "T/A": "Chakhaza ", "GVH": "Chimkoka", "Village": "Chimkoka", "Latitude": "-13.3117506", "Longitude": "33.6647096"}, geometry": { "type": "Point", "coordinates": [33.6647096, -13.3117506"] } }, 
"type": "feature", "properties": { "CBCC_Name": "Misuku", "CBCC_REF": "DA1-022-023", "District": "Dowa", "T/A": "Chakhaza ", "GVH": "Dambalika", "Village": "Dambalika 2", "Latitude": "-13.2640559", "Longitude": "33.6994811"}, geometry": { "type": "Point", "coordinates": [33.6994811, -13.2640559"] } }, 
"type": "feature", "properties": { "CBCC_Name": "Kabwinja", "CBCC_REF": "DA1-026-027", "District": "Dowa", "T/A": "Chakhaza ", "GVH": "Kabwinja", "Village": "Kabwinja", "Latitude": "-13.4878461", "Longitude": "33.5632201"}, geometry": { "type": "Point", "coordinates": [33.5632201, -13.4878461"] } }, 
"type": "feature", "properties": { "CBCC_Name": "Mlengwe", "CBCC_REF": "DA1-035-033", "District": "Dowa", "T/A": "Chakhaza ", "GVH": "Kamungwe", "Village": "Mlengwe", "Latitude": "-13.3599023", "Longitude": "33.622613"}, geometry": { "type": "Point", "coordinates": [33.622613, -13.3599023"] } }, 
"type": "feature", "properties": { "CBCC_Name": "Chipanje", "CBCC_REF": "DA1-045-047", "District": "Dowa", "T/A": "Chakhaza ", "GVH": "Makombwa", "Village": "Makombwa", "Latitude": "-13.3779561", "Longitude": "33.492001"}, geometry": { "type": "Point", "coordinates": [33.492001, -13.3779561"] } }, 
"type": "feature", "properties": { "CBCC_Name": "Kazinda-DA1-053-056", "CBCC_REF": "DA1-053-056", "District": "Dowa", "T/A": "Chakhaza ", "GVH": "Mkotamo", "Village": "Guma", "Latitude": "-13.3239193", "Longitude": "33.6923509"}, geometry": { "type": "Point", "coordinates": [33.6923509, -13.3239193"] } }, 
"type": "feature", "properties": { "CBCC_Name": "Chiwayu promise", "CBCC_REF": "DA1-057-020", "District": "Dowa", "T/A": "Chakhaza ", "GVH": "Chiwayu", "Village": "Chiwayu", "Latitude": "-13.2440193", "Longitude": "33.7016282"}, geometry": { "type": "Point", "coordinates": [33.7016282, -13.2440193"] } }, 
"type": "feature", "properties": { "CBCC_Name": "Malipa", "CBCC_REF": "DA1-059-050", "District": "Dowa", "T/A": "Chakhaza ", "GVH": "Malipa", "Village": "Malipa", "Latitude": "-13.3874353", "Longitude": "33.7596678"}, geometry": { "type": "Point", "coordinates": [33.7596678, -13.3874353"] } }, 
"type": "feature", "properties": { "CBCC_Name": "Mponela", "CBCC_REF": "DA1-059-061", "District": "Dowa", "T/A": "Chakhaza ", "GVH": "Mponela", "Village": "Mponela", "Latitude": "-13.4151446", "Longitude": "33.6689672"}, geometry": { "type": "Point", "coordinates": [33.6689672, -13.4151446"] } }, 
"type": "feature", "properties": { "CBCC_Name": "Namilulu", "CBCC_REF": "DA1-073-075", "District": "Dowa", "T/A": "Chakhaza ", "GVH": "Zinamdala", "Village": "Lizwe", "Latitude": "-13.365132", "Longitude": "33.6950604"}, geometry": { "type": "Point", "coordinates": [33.6950604, -13.365132"] } }, 
"type": "feature", "properties": { "CBCC_Name": "Khulire", "CBCC_REF": "DA1-081-005", "District": "Dowa", "T/A": "Chakhaza ", "GVH": "Chidekwende", "Village": "Chidekwende", "Latitude": "-13.313088", "Longitude": "33.7039824"}, geometry": { "type": "Point", "coordinates": [33.7039824, -13.313088"] } }, 
"type": "feature", "properties": { "CBCC_Name": "Chigwechokha", "CBCC_REF": "DA1-082-006", "District": "Dowa", "T/A": "Chakhaza ", "GVH": "Chigwe", "Village": "Chigwe", "Latitude": "-13.2360388", "Longitude": "33.6971705"}, geometry": { "type": "Point", "coordinates": [33.6971705, -13.2360388"] } }, 
"type": "feature", "properties": { "CBCC_Name": "Linthembwe", "CBCC_REF": "DA1-083-007", "District": "Dowa", "T/A": "Chakhaza ", "GVH": "Chikasauka", "Village": "Chikasauka", "Latitude": "-13.4146678", "Longitude": "33.7136888"}, geometry": { "type": "Point", "coordinates": [33.7136888, -13.4146678"] } }, 
"type": "feature", "properties": { "CBCC_Name": "Kalikongwe", "CBCC_REF": "DA1-084-008", "District": "Dowa", "T/A": "Chakhaza ", "GVH": "Chikhobwe", "Village": "Chikhobwe", "Latitude": "-13.4113805", "Longitude": "33.7026089"}, geometry": { "type": "Point", "coordinates": [33.7026089, -13.4113805"] } }, 
"type": "feature", "properties": { "CBCC_Name": "Mkhuthe", "CBCC_REF": "DA1-085-009", "District": "Dowa", "T/A": "Chakhaza ", "GVH": "Chikulu", "Village": "Kachitibu", "Latitude": "-13.2829261", "Longitude": "33.701943"}, geometry": { "type": "Point", "coordinates": [33.701943, -13.2829261"] } }, 
"type": "feature", "properties": { "CBCC_Name": "Chimbuli", "CBCC_REF": "DA1-086-012", "District": "Dowa", "T/A": "Chakhaza ", "GVH": "Chimbuli", "Village": "Chimbuli", "Latitude": "-13.3513432", "Longitude": "33.6810318"}, geometry": { "type": "Point", "coordinates": [33.6810318, -13.3513432"] } }, 
"type": "feature", "properties": { "CBCC_Name": "Nankha", "CBCC_REF": "DA1-087-014", "District": "Dowa", "T/A": "Chakhaza ", "GVH": "Ching'oma", "Village": "Ching'oma", "Latitude": "-13.4212167", "Longitude": "33.7024809"}, geometry": { "type": "Point", "coordinates": [33.7024809, -13.4212167"] } }, 
"type": "feature", "properties": { "CBCC_Name": "Malino", "CBCC_REF": "DA1-088-015", "District": "Dowa", "T/A": "Chakhaza ", "GVH": "Chinguwo", "Village": "Lungu", "Latitude": "-13.4164582", "Longitude": "33.6545637"}, geometry": { "type": "Point", "coordinates": [33.6545637, -13.4164582"] } }, 
"type": "feature", "properties": { "CBCC_Name": "Chafulu", "CBCC_REF": "DA1-089-016", "District": "Dowa", "T/A": "Chakhaza ", "GVH": "Chinkhwangwa", "Village": "Mkhalapadzuwa", "Latitude": "-13.3809882", "Longitude": "33.6500676"}, geometry": { "type": "Point", "coordinates": [33.6500676, -13.3809882"] } }, 
"type": "feature", "properties": { "CBCC_Name": "Chinkhwiri", "CBCC_REF": "DA1-090-017", "District": "Dowa", "T/A": "Chakhaza ", "GVH": "Chinkhwiri", "Village": "Chinkhwiri", "Latitude": "-13.3860552", "Longitude": "33.7213121"}, geometry": { "type": "Point", "coordinates": [33.7213121, -13.3860552"] } }, 
"type": "feature", "properties": { "CBCC_Name": "Kantchefu", "CBCC_REF": "DA1-090-018", "District": "Dowa", "T/A": "Chakhaza ", "GVH": "Chinkhwiri", "Village": "Chinkhwiri", "Latitude": "-13.3847248", "Longitude": "33.7359259"}, geometry": { "type": "Point", "coordinates": [33.7359259, -13.3847248"] } }, 
"type": "feature", "properties": { "CBCC_Name": "Msanjo", "CBCC_REF": "DA1-090-019", "District": "Dowa", "T/A": "Chakhaza ", "GVH": "Chinkhwiri", "Village": "Musanjo", "Latitude": "-13.3646066", "Longitude": "33.7292219"}, geometry": { "type": "Point", "coordinates": [33.7292219, -13.3646066"] } }, 
"type": "feature", "properties": { "CBCC_Name": "Kachere-DA1-091-021", "CBCC_REF": "DA1-091-021", "District": "Dowa", "T/A": "Chakhaza ", "GVH": "Chole", "Village": "Chole", "Latitude": "-13.343903", "Longitude": "33.6120568"}, geometry": { "type": "Point", "coordinates": [33.6120568, -13.343903"] } }, 
"type": "feature", "properties": { "CBCC_Name": "Chanjuchi", "CBCC_REF": "DA1-092-022", "District": "Dowa", "T/A": "Chakhaza ", "GVH": "Chudani", "Village": "Chudani", "Latitude": "-13.2401331", "Longitude": "33.663654"}, geometry": { "type": "Point", "coordinates": [33.663654, -13.2401331"] } }, 
"type": "feature", "properties": { "CBCC_Name": "Chatewa", "CBCC_REF": "DA1-093-024", "District": "Dowa", "T/A": "Chakhaza ", "GVH": "Daniel", "Village": "Chatewa", "Latitude": "-13.4037579", "Longitude": "33.7287404"}, geometry": { "type": "Point", "coordinates": [33.7287404, -13.4037579"] } }, 
"type": "feature", "properties": { "CBCC_Name": "Chimundi", "CBCC_REF": "DA1-094-025", "District": "Dowa", "T/A": "Chakhaza ", "GVH": "Elisa", "Village": "Hala", "Latitude": "-13.3773435", "Longitude": "33.6928525"}, geometry": { "type": "Point", "coordinates": [33.6928525, -13.3773435"] } }, 
"type": "feature", "properties": { "CBCC_Name": "Elisa", "CBCC_REF": "DA1-094-026", "District": "Dowa", "T/A": "Chakhaza ", "GVH": "Elisa", "Village": "Elisa", "Latitude": "-13.3902119", "Longitude": "33.6847365"}, geometry": { "type": "Point", "coordinates": [33.6847365, -13.3902119"] } }, 
"type": "feature", "properties": { "CBCC_Name": "Kachipande", "CBCC_REF": "DA1-095-028", "District": "Dowa", "T/A": "Chakhaza ", "GVH": "Kachipande", "Village": "Kachipande", "Latitude": "-13.3252206", "Longitude": "33.7048165"}, geometry": { "type": "Point", "coordinates": [33.7048165, -13.3252206"] } }, 
"type": "feature", "properties": { "CBCC_Name": "Tiyanjane-DA1-096-029", "CBCC_REF": "DA1-096-029", "District": "Dowa", "T/A": "Chakhaza ", "GVH": "Kachiwala", "Village": "Kachiwala", "Latitude": "-13.4090877", "Longitude": "33.5438367"}, geometry": { "type": "Point", "coordinates": [33.5438367, -13.4090877"] } }, 
"type": "feature", "properties": { "CBCC_Name": "Kadzimete", "CBCC_REF": "DA1-097-030", "District": "Dowa", "T/A": "Chakhaza ", "GVH": "Kadzimete", "Village": "Kadzimete", "Latitude": "-13.4192577", "Longitude": "33.76123"}, geometry": { "type": "Point", "coordinates": [33.76123, -13.4192577"] } }, 
"type": "feature", "properties": { "CBCC_Name": "Kambala", "CBCC_REF": "DA1-098-031", "District": "Dowa", "T/A": "Chakhaza ", "GVH": "Kambala", "Village": "Kambala", "Latitude": "-13.4088694", "Longitude": "33.7727285"}, geometry": { "type": "Point", "coordinates": [33.7727285, -13.4088694"] } }, 
"type": "feature", "properties": { "CBCC_Name": "Kamongo", "CBCC_REF": "DA1-099-032", "District": "Dowa", "T/A": "Chakhaza ", "GVH": "Kamongo", "Village": "Kamongo", "Latitude": "-13.4436894", "Longitude": "33.5264657"}, geometry": { "type": "Point", "coordinates": [33.5264657, -13.4436894"] } }, 
"type": "feature", "properties": { "CBCC_Name": "Miyala", "CBCC_REF": "DA1-100-034", "District": "Dowa", "T/A": "Chakhaza ", "GVH": "Kanguwo", "Village": "Mtambe", "Latitude": "-13.3773942", "Longitude": "33.752476"}, geometry": { "type": "Point", "coordinates": [33.752476, -13.3773942"] } }, 
"type": "feature", "properties": { "CBCC_Name": "Nalitengere", "CBCC_REF": "DA1-101-035", "District": "Dowa", "T/A": "Chakhaza ", "GVH": "Kanthonga", "Village": "Kanthonga", "Latitude": "-13.3593319", "Longitude": "33.6819845"}, geometry": { "type": "Point", "coordinates": [33.6819845, -13.3593319"] } }, 
"type": "feature", "properties": { "CBCC_Name": "Chimwankhuku", "CBCC_REF": "DA1-102-036", "District": "Dowa", "T/A": "Chakhaza ", "GVH": "Kapondasoka", "Village": "Kamkumbe", "Latitude": "-13.3152915", "Longitude": "33.6965961"}, geometry": { "type": "Point", "coordinates": [33.6965961, -13.3152915"] } }, 
"type": "feature", "properties": { "CBCC_Name": "Kapondo", "CBCC_REF": "DA1-103-037", "District": "Dowa", "T/A": "Chakhaza ", "GVH": "Kapondo", "Village": "Kapondo", "Latitude": "-13.4403167", "Longitude": "33.7486803"}, geometry": { "type": "Point", "coordinates": [33.7486803, -13.4403167"] } }, 
"type": "feature", "properties": { "CBCC_Name": "Mang'a", "CBCC_REF": "DA1-104-038", "District": "Dowa", "T/A": "Chakhaza ", "GVH": "Kateka", "Village": "Nkanire 2", "Latitude": "-13.4680888", "Longitude": "33.5504932"}, geometry": { "type": "Point", "coordinates": [33.5504932, -13.4680888"] } }, 
"type": "feature", "properties": { "CBCC_Name": "Katengeza", "CBCC_REF": "DA1-105-039", "District": "Dowa", "T/A": "Chakhaza ", "GVH": "Katengeza", "Village": "Katengeza", "Latitude": "-13.3408536", "Longitude": "33.6186471"}, geometry": { "type": "Point", "coordinates": [33.6186471, -13.3408536"] } }, 
"type": "feature", "properties": { "CBCC_Name": "Madzimayera", "CBCC_REF": "DA1-106-040", "District": "Dowa", "T/A": "Chakhaza ", "GVH": "Kawaye", "Village": "Jeulani", "Latitude": "-13.338522", "Longitude": "33.6672272"}, geometry": { "type": "Point", "coordinates": [33.6672272, -13.338522"] } }, 
"type": "feature", "properties": { "CBCC_Name": "Chasolo", "CBCC_REF": "DA1-107-041", "District": "Dowa", "T/A": "Chakhaza ", "GVH": "Kazisonga", "Village": "Kazisonga", "Latitude": "-13.3411838", "Longitude": "33.6335679"}, geometry": { "type": "Point", "coordinates": [33.6335679, -13.3411838"] } }, 
"type": "feature", "properties": { "CBCC_Name": "Nkhobola", "CBCC_REF": "DA1-108-042", "District": "Dowa", "T/A": "Chakhaza ", "GVH": "Lipenga", "Village": "Lipenga", "Latitude": "-13.4244643", "Longitude": "33.5691223"}, geometry": { "type": "Point", "coordinates": [33.5691223, -13.4244643"] } }, 
"type": "feature", "properties": { "CBCC_Name": "Zinamdala", "CBCC_REF": "DA1-109-043", "District": "Dowa", "T/A": "Chakhaza ", "GVH": "Madziada", "Village": "Madziada", "Latitude": "-13.3696043", "Longitude": "33.6775236"}, geometry": { "type": "Point", "coordinates": [33.6775236, -13.3696043"] } }, 
"type": "feature", "properties": { "CBCC_Name": "Mafosha", "CBCC_REF": "DA1-110-044", "District": "Dowa", "T/A": "Chakhaza ", "GVH": "Mafosha", "Village": "Mafosha", "Latitude": "-13.4165538", "Longitude": "33.7824829"}, geometry": { "type": "Point", "coordinates": [33.7824829, -13.4165538"] } }, 
"type": "feature", "properties": { "CBCC_Name": "Mphalapala-DA1-111-045", "CBCC_REF": "DA1-111-045", "District": "Dowa", "T/A": "Chakhaza ", "GVH": "Magantha", "Village": "Magantha", "Latitude": "-13.5130989", "Longitude": "33.5650243"}, geometry": { "type": "Point", "coordinates": [33.5650243, -13.5130989"] } }, 
"type": "feature", "properties": { "CBCC_Name": "Mkalalo", "CBCC_REF": "DA1-112-046", "District": "Dowa", "T/A": "Chakhaza ", "GVH": "Makalani", "Village": "Makalani", "Latitude": "-13.3961193", "Longitude": "33.7700473"}, geometry": { "type": "Point", "coordinates": [33.7700473, -13.3961193"] } }, 
"type": "feature", "properties": { "CBCC_Name": "Kusunga", "CBCC_REF": "DA1-113-048", "District": "Dowa", "T/A": "Chakhaza ", "GVH": "Malenga", "Village": "Katambo", "Latitude": "-13.4425033", "Longitude": "33.6672706"}, geometry": { "type": "Point", "coordinates": [33.6672706, -13.4425033"] } }, 
"type": "feature", "properties": { "CBCC_Name": "Mbayo", "CBCC_REF": "DA1-113-049", "District": "Dowa", "T/A": "Chakhaza ", "GVH": "Malenga", "Village": "Mgulula", "Latitude": "-13.4669291", "Longitude": "33.669359"}, geometry": { "type": "Point", "coordinates": [33.669359, -13.4669291"] } }, 
"type": "feature", "properties": { "CBCC_Name": "Bowe", "CBCC_REF": "DA1-114-051", "District": "Dowa", "T/A": "Chakhaza ", "GVH": "Mandala", "Village": "Mandala", "Latitude": "-13.291513", "Longitude": "33.6835543"}, geometry": { "type": "Point", "coordinates": [33.6835543, -13.291513"] } }, 
"type": "feature", "properties": { "CBCC_Name": "Sanga-DA1-115-052", "CBCC_REF": "DA1-115-052", "District": "Dowa", "T/A": "Chakhaza ", "GVH": "Mangadzi", "Village": "Mangadzi", "Latitude": "-13.4738001", "Longitude": "33.6048234"}, geometry": { "type": "Point", "coordinates": [33.6048234, -13.4738001"] } }, 
"type": "feature", "properties": { "CBCC_Name": "Dokotala", "CBCC_REF": "DA1-116-053", "District": "Dowa", "T/A": "Chakhaza ", "GVH": "Mchangwe", "Village": "Mlembo", "Latitude": "-13.4212028", "Longitude": "33.6927793"}, geometry": { "type": "Point", "coordinates": [33.6927793, -13.4212028"] } }, 
"type": "feature", "properties": { "CBCC_Name": "Mchangwe", "CBCC_REF": "DA1-116-054", "District": "Dowa", "T/A": "Chakhaza ", "GVH": "Mchangwe", "Village": "Mchangwe", "Latitude": "-13.4016751", "Longitude": "33.6896687"}, geometry": { "type": "Point", "coordinates": [33.6896687, -13.4016751"] } }, 
"type": "feature", "properties": { "CBCC_Name": "Mumba", "CBCC_REF": "DA1-116-055", "District": "Dowa", "T/A": "Chakhaza ", "GVH": "Mchangwe", "Village": "Mumba", "Latitude": "-13.3976067", "Longitude": "33.678914"}, geometry": { "type": "Point", "coordinates": [33.678914, -13.3976067"] } }, 
"type": "feature", "properties": { "CBCC_Name": "Chimbewa", "CBCC_REF": "DA1-117-057", "District": "Dowa", "T/A": "Chakhaza ", "GVH": "Mkwambisi", "Village": "Shadreck", "Latitude": "-13.3916028", "Longitude": "33.6426934"}, geometry": { "type": "Point", "coordinates": [33.6426934, -13.3916028"] } }, 
"type": "feature", "properties": { "CBCC_Name": "Mkantha", "CBCC_REF": "DA1-118-058", "District": "Dowa", "T/A": "Chakhaza ", "GVH": "Mkwetsano", "Village": "Mkwetsano", "Latitude": "-13.2601361", "Longitude": "33.6896019"}, geometry": { "type": "Point", "coordinates": [33.6896019, -13.2601361"] } }, 
"type": "feature", "properties": { "CBCC_Name": "Sambainfa", "CBCC_REF": "DA1-119-059", "District": "Dowa", "T/A": "Chakhaza ", "GVH": "Mlangali", "Village": "Mlangali", "Latitude": "-13.4404629", "Longitude": "33.5630306"}, geometry": { "type": "Point", "coordinates": [33.5630306, -13.4404629"] } }, 
"type": "feature", "properties": { "CBCC_Name": "Mkulumo", "CBCC_REF": "DA1-120-060", "District": "Dowa", "T/A": "Chakhaza ", "GVH": "Mphunju", "Village": "Mphunju", "Latitude": "-13.2348533", "Longitude": "33.6591128"}, geometry": { "type": "Point", "coordinates": [33.6591128, -13.2348533"] } }, 
"type": "feature", "properties": { "CBCC_Name": "Mwambimbi", "CBCC_REF": "DA1-121-062", "District": "Dowa", "T/A": "Chakhaza ", "GVH": "Mwambimbi", "Village": "Mwambimbi", "Latitude": "-13.4234679", "Longitude": "33.7387044"}, geometry": { "type": "Point", "coordinates": [33.7387044, -13.4234679"] } }, 
"type": "feature", "properties": { "CBCC_Name": "Miula", "CBCC_REF": "DA1-122-063", "District": "Dowa", "T/A": "Chakhaza ", "GVH": "Mwangala", "Village": "Chisoso", "Latitude": "-13.3238557", "Longitude": "33.6714866"}, geometry": { "type": "Point", "coordinates": [33.6714866, -13.3238557"] } }, 
"type": "feature", "properties": { "CBCC_Name": "Joshua", "CBCC_REF": "DA1-123-064", "District": "Dowa", "T/A": "Chakhaza ", "GVH": "Mzongo", "Village": "Joshua", "Latitude": "-13.4344402", "Longitude": "33.7650612"}, geometry": { "type": "Point", "coordinates": [33.7650612, -13.4344402"] } }, 
"type": "feature", "properties": { "CBCC_Name": "Nakutepa", "CBCC_REF": "DA1-124-065", "District": "Dowa", "T/A": "Chakhaza ", "GVH": "Nakutepa", "Village": "Nakutepa", "Latitude": "-13.4100747", "Longitude": "33.6928905"}, geometry": { "type": "Point", "coordinates": [33.6928905, -13.4100747"] } }, 
"type": "feature", "properties": { "CBCC_Name": "Njirambo", "CBCC_REF": "DA1-125-066", "District": "Dowa", "T/A": "Chakhaza ", "GVH": "Njirambo", "Village": "Kadzanja", "Latitude": "-13.3768823", "Longitude": "33.6770285"}, geometry": { "type": "Point", "coordinates": [33.6770285, -13.3768823"] } }, 
"type": "feature", "properties": { "CBCC_Name": "Takomana-SA1-019-037", "CBCC_REF": "DA1-126-067", "District": "Dowa", "T/A": "Chakhaza ", "GVH": "Nkhala", "Village": "Njenjete", "Latitude": "-13.4460646", "Longitude": "33.6284674"}, geometry": { "type": "Point", "coordinates": [33.6284674, -13.4460646"] } }, 
"type": "feature", "properties": { "CBCC_Name": "Msikidzi-DA1-127-068", "CBCC_REF": "DA1-127-068", "District": "Dowa", "T/A": "Chakhaza ", "GVH": "Nsangambe", "Village": "Nsangambe", "Latitude": "-13.5269369", "Longitude": "33.5936391"}, geometry": { "type": "Point", "coordinates": [33.5936391, -13.5269369"] } }, 
"type": "feature", "properties": { "CBCC_Name": "Tikondane-DA1-128-069", "CBCC_REF": "DA1-128-069", "District": "Dowa", "T/A": "Chakhaza ", "GVH": "Salawe", "Village": "Josamu", "Latitude": "-13.3624102", "Longitude": "33.7398466"}, geometry": { "type": "Point", "coordinates": [33.7398466, -13.3624102"] } }, 
"type": "feature", "properties": { "CBCC_Name": "Simbi", "CBCC_REF": "DA1-129-070", "District": "Dowa", "T/A": "Chakhaza ", "GVH": "Sangambe", "Village": "Simbi", "Latitude": "-13.5267136", "Longitude": "33.6139999"}, geometry": { "type": "Point", "coordinates": [33.6139999, -13.5267136"] } }, 
"type": "feature", "properties": { "CBCC_Name": "Njawe", "CBCC_REF": "DA1-130-071", "District": "Dowa", "T/A": "Chakhaza ", "GVH": "Simokomphadwe", "Village": "Simoko", "Latitude": "-13.411812", "Longitude": "33.6432383"}, geometry": { "type": "Point", "coordinates": [33.6432383, -13.411812"] } }, 
"type": "feature", "properties": { "CBCC_Name": "Sungeni", "CBCC_REF": "DA1-131-072", "District": "Dowa", "T/A": "Chakhaza ", "GVH": "Sungeni", "Village": "Sungeni", "Latitude": "-13.3756248", "Longitude": "33.6661708"}, geometry": { "type": "Point", "coordinates": [33.6661708, -13.3756248"] } }, 
"type": "feature", "properties": { "CBCC_Name": "Chambidzi", "CBCC_REF": "DA1-132-073", "District": "Dowa", "T/A": "Chakhaza ", "GVH": "Vikumbu", "Village": "Wiziri", "Latitude": "-13.4220987", "Longitude": "33.7574201"}, geometry": { "type": "Point", "coordinates": [33.7574201, -13.4220987"] } }, 
"type": "feature", "properties": { "CBCC_Name": "Kasomphe", "CBCC_REF": "DA1-132-074", "District": "Dowa", "T/A": "Chakhaza ", "GVH": "Vikumbu", "Village": "Kasomphe", "Latitude": "-13.413892", "Longitude": "33.7566893"}, geometry": { "type": "Point", "coordinates": [33.7566893, -13.413892"] } }, 
"type": "feature", "properties": { "CBCC_Name": "LUKALI", "CBCC_REF": "RU1-001-001", "District": "Rumphi", "T/A": "Chisovya", "GVH": "BAGHAYA", "Village": "MTUKULA", "Latitude": "-11.0003817", "Longitude": "33.9225152"}, geometry": { "type": "Point", "coordinates": [33.9225152, -11.0003817"] } }, 
"type": "feature", "properties": { "CBCC_Name": "Thochi", "CBCC_REF": "RU1-002-002", "District": "Rumphi", "T/A": "Chisovya", "GVH": "Chamala", "Village": "Chikhutu", "Latitude": "-10.9187183", "Longitude": "33.9717274"}, geometry": { "type": "Point", "coordinates": [33.9717274, -10.9187183"] } }, 
"type": "feature", "properties": { "CBCC_Name": "KAPETA", "CBCC_REF": "RU1-003-003", "District": "Rumphi", "T/A": "Chisovya", "GVH": "CHANDIWIRA", "Village": "CHANDIWIRA", "Latitude": "-10.9478326", "Longitude": "33.9415099"}, geometry": { "type": "Point", "coordinates": [33.9415099, -10.9478326"] } }, 
"type": "feature", "properties": { "CBCC_Name": "MDUMUKA", "CBCC_REF": "RU1-003-004", "District": "Rumphi", "T/A": "Chisovya", "GVH": "CHANDIWIRA", "Village": "MJITAYI", "Latitude": "-10.9428732", "Longitude": "33.9488921"}, geometry": { "type": "Point", "coordinates": [33.9488921, -10.9428732"] } }, 
"type": "feature", "properties": { "CBCC_Name": "Chisemba", "CBCC_REF": "RU1-004-005", "District": "Rumphi", "T/A": "Chisovya", "GVH": "Chikbyo", "Village": "Mthunthika", "Latitude": "-11.0243452", "Longitude": "33.9147993"}, geometry": { "type": "Point", "coordinates": [33.9147993, -11.0243452"] } }, 
"type": "feature", "properties": { "CBCC_Name": "Kawaza", "CBCC_REF": "RU1-005-006", "District": "Rumphi", "T/A": "Chisovya", "GVH": "Chiwaya", "Village": "Kawaza", "Latitude": "-10.9326004", "Longitude": "33.9511347"}, geometry": { "type": "Point", "coordinates": [33.9511347, -10.9326004"] } }, 
"type": "feature", "properties": { "CBCC_Name": "Titemwane", "CBCC_REF": "RU1-006-007", "District": "Rumphi", "T/A": "Chisovya", "GVH": "Kamatang'ombe", "Village": "Biti", "Latitude": "-10.9225376", "Longitude": "33.959727"}, geometry": { "type": "Point", "coordinates": [33.959727, -10.9225376"] } }, 
"type": "feature", "properties": { "CBCC_Name": "Bera", "CBCC_REF": "RU1-007-008", "District": "Rumphi", "T/A": "Chisovya", "GVH": "Kanjululu", "Village": "Kalundi", "Latitude": "-10.9634438", "Longitude": "33.9310127"}, geometry": { "type": "Point", "coordinates": [33.9310127, -10.9634438"] } }, 
"type": "feature", "properties": { "CBCC_Name": "Kaviyombo", "CBCC_REF": "RU1-009-009", "District": "Rumphi", "T/A": "Chisovya", "GVH": "Kawito", "Village": "Kawito", "Latitude": "-10.9261021", "Longitude": "33.9649051"}, geometry": { "type": "Point", "coordinates": [33.9649051, -10.9261021"] } }, 
"type": "feature", "properties": { "CBCC_Name": "Vihanga", "CBCC_REF": "RU1-010-010", "District": "Rumphi", "T/A": "Chisovya", "GVH": "Lalika", "Village": "Kayiwulure", "Latitude": "-10.9803949", "Longitude": "33.927373"}, geometry": { "type": "Point", "coordinates": [33.927373, -10.9803949"] } }, 
"type": "feature", "properties": { "CBCC_Name": "Lushida", "CBCC_REF": "RU1-011-011", "District": "Rumphi", "T/A": "Chisovya", "GVH": "Lukwamba", "Village": "Lukwamba", "Latitude": "-10.8793263", "Longitude": "33.9906394"}, geometry": { "type": "Point", "coordinates": [33.9906394, -10.8793263"] } }, 
"type": "feature", "properties": { "CBCC_Name": "BANKHU", "CBCC_REF": "RU1-012-012", "District": "Rumphi", "T/A": "Chisovya", "GVH": "MBAZAYAO", "Village": "MWAFAWILO", "Latitude": "-10.9293113", "Longitude": "33.9196814"}, geometry": { "type": "Point", "coordinates": [33.9196814, -10.9293113"] } }, 
"type": "feature", "properties": { "CBCC_Name": "FORTIA", "CBCC_REF": "RU1-012-013", "District": "Rumphi", "T/A": "Chisovya", "GVH": "MBAZAYAO", "Village": "MUNYONGANI", "Latitude": "-10.9424661", "Longitude": "33.9362436"}, geometry": { "type": "Point", "coordinates": [33.9362436, -10.9424661"] } }, 
"type": "feature", "properties": { "CBCC_Name": "Vinyoronyondo", "CBCC_REF": "RU1-013-014", "District": "Rumphi", "T/A": "Chisovya", "GVH": "Mkoweka", "Village": "Nkhalikali", "Latitude": "-10.9892444", "Longitude": "33.9261478"}, geometry": { "type": "Point", "coordinates": [33.9261478, -10.9892444"] } }, 
"type": "feature", "properties": { "CBCC_Name": "Kasezi", "CBCC_REF": "RU1-014-015", "District": "Rumphi", "T/A": "Chisovya", "GVH": "Mthangamwembe", "Village": "Nkhamayamaji", "Latitude": "-10.9493439", "Longitude": "33.9302931"}, geometry": { "type": "Point", "coordinates": [33.9302931, -10.9493439"] } }, 
"type": "feature", "properties": { "CBCC_Name": "BETHANI", "CBCC_REF": "RU1-015-016", "District": "Rumphi", "T/A": "Chisovya", "GVH": "MUNYONGANi", "Village": "CHiTULIKA", "Latitude": "-10.9381604", "Longitude": "33.9185238"}, geometry": { "type": "Point", "coordinates": [33.9185238, -10.9381604"] } }, 
"type": "feature", "properties": { "CBCC_Name": "Msikidzi-RU1-016-017", "CBCC_REF": "RU1-016-017", "District": "Rumphi", "T/A": "Chisovya", "GVH": "Mwang'onga", "Village": "Ntchenjere", "Latitude": "-10.9526371", "Longitude": "33.9340664"}, geometry": { "type": "Point", "coordinates": [33.9340664, -10.9526371"] } }, 
"type": "feature", "properties": { "CBCC_Name": "Linga", "CBCC_REF": "RU1-017-018", "District": "Rumphi", "T/A": "Chisovya", "GVH": "Zgabalabata", "Village": "Zgabalabata", "Latitude": "-10.9190082", "Longitude": "33.9469013"}, geometry": { "type": "Point", "coordinates": [33.9469013, -10.9190082"] } }, 
"type": "feature", "properties": { "CBCC_Name": "Lusungu", "CBCC_REF": "NB1-001-002", "District": "Nkhata Bay", "T/A": "Fukamalaza", "GVH": "Gulugulu", "Village": "Viboko", "Latitude": "-11.7277015", "Longitude": "34.1521941"}, geometry": { "type": "Point", "coordinates": [34.1521941, -11.7277015"] } }, 
"type": "feature", "properties": { "CBCC_Name": "Mughogho", "CBCC_REF": "NB1-001-003", "District": "Nkhata Bay", "T/A": "Fukamalaza", "GVH": "Gulugulu", "Village": "Mlimanthenda", "Latitude": "-11.7002193", "Longitude": "34.1497304"}, geometry": { "type": "Point", "coordinates": [34.1497304, -11.7002193"] } }, 
"type": "feature", "properties": { "CBCC_Name": "Tiyesi", "CBCC_REF": "NB1-001-004", "District": "Nkhata Bay", "T/A": "Fukamalaza", "GVH": "Gulugulu", "Village": "Chimera", "Latitude": "-11.7290294", "Longitude": "34.1327124"}, geometry": { "type": "Point", "coordinates": [34.1327124, -11.7290294"] } }, 
"type": "feature", "properties": { "CBCC_Name": "Chawi", "CBCC_REF": "NB1-002-005", "District": "Nkhata Bay", "T/A": "Fukamalaza", "GVH": "Jumbo", "Village": "Khwerenji", "Latitude": "-11.7343861", "Longitude": "34.2331943"}, geometry": { "type": "Point", "coordinates": [34.2331943, -11.7343861"] } }, 
"type": "feature", "properties": { "CBCC_Name": "Chikukula", "CBCC_REF": "NB1-002-006", "District": "Nkhata Bay", "T/A": "Fukamalaza", "GVH": "Jumbo", "Village": "Gamuti", "Latitude": "-11.7417915", "Longitude": "34.2243938"}, geometry": { "type": "Point", "coordinates": [34.2243938, -11.7417915"] } }, 
"type": "feature", "properties": { "CBCC_Name": "Chiziya", "CBCC_REF": "NB1-002-007", "District": "Nkhata Bay", "T/A": "Fukamalaza", "GVH": "Jumbo", "Village": "Siziyo", "Latitude": "-11.7207062", "Longitude": "34.2343737"}, geometry": { "type": "Point", "coordinates": [34.2343737, -11.7207062"] } }, 
"type": "feature", "properties": { "CBCC_Name": "Damba chiwole", "CBCC_REF": "NB1-002-008", "District": "Nkhata Bay", "T/A": "Fukamalaza", "GVH": "Jumbo", "Village": "Damba", "Latitude": "-11.7486964", "Longitude": "34.2275418"}, geometry": { "type": "Point", "coordinates": [34.2275418, -11.7486964"] } }, 
"type": "feature", "properties": { "CBCC_Name": "Gamuti", "CBCC_REF": "NB1-002-009", "District": "Nkhata Bay", "T/A": "Fukamalaza", "GVH": "Jumbo", "Village": "Jamuti", "Latitude": "-11.7457213", "Longitude": "34.2306482"}, geometry": { "type": "Point", "coordinates": [34.2306482, -11.7457213"] } }, 
"type": "feature", "properties": { "CBCC_Name": "Hola", "CBCC_REF": "NB1-002-010", "District": "Nkhata Bay", "T/A": "Fukamalaza", "GVH": "Jumbo", "Village": "Jumbo", "Latitude": "-11.720439", "Longitude": "34.240987"}, geometry": { "type": "Point", "coordinates": [34.240987, -11.720439"] } }, 
"type": "feature", "properties": { "CBCC_Name": "Kapesi", "CBCC_REF": "NB1-002-011", "District": "Nkhata Bay", "T/A": "Fukamalaza", "GVH": "Jumbo", "Village": "Khwerenji", "Latitude": "-11.7179971", "Longitude": "34.2288402"}, geometry": { "type": "Point", "coordinates": [34.2288402, -11.7179971"] } }, 
"type": "feature", "properties": { "CBCC_Name": "Mukuwazi", "CBCC_REF": "NB1-002-012", "District": "Nkhata Bay", "T/A": "Fukamalaza", "GVH": "Jumbo", "Village": "Phetela", "Latitude": "-11.7136055", "Longitude": "34.2348927"}, geometry": { "type": "Point", "coordinates": [34.2348927, -11.7136055"] } }, 
"type": "feature", "properties": { "CBCC_Name": "Chendera", "CBCC_REF": "NB1-003-014", "District": "Nkhata Bay", "T/A": "Fukamalaza", "GVH": "Nkhungulu", "Village": "Kwindani", "Latitude": "-11.7497139", "Longitude": "34.2410362"}, geometry": { "type": "Point", "coordinates": [34.2410362, -11.7497139"] } }, 
"type": "feature", "properties": { "CBCC_Name": "Kapumphi", "CBCC_REF": "NB1-003-015", "District": "Nkhata Bay", "T/A": "Fukamalaza", "GVH": "Nkhungulu", "Village": "Nkhungulu", "Latitude": "-11.7519012", "Longitude": "34.2486807"}, geometry": { "type": "Point", "coordinates": [34.2486807, -11.7519012"] } }, 
"type": "feature", "properties": { "CBCC_Name": "Kasingu", "CBCC_REF": "NB1-003-016", "District": "Nkhata Bay", "T/A": "Fukamalaza", "GVH": "Nkhungulu", "Village": "Kasingu", "Latitude": "-11.7692707", "Longitude": "34.2334863"}, geometry": { "type": "Point", "coordinates": [34.2334863, -11.7692707"] } }, 
"type": "feature", "properties": { "CBCC_Name": "Mphuzi", "CBCC_REF": "NB1-003-017", "District": "Nkhata Bay", "T/A": "Fukamalaza", "GVH": "Nkhungulu", "Village": "Yegama", "Latitude": "-11.7546017", "Longitude": "34.2408544"}, geometry": { "type": "Point", "coordinates": [34.2408544, -11.7546017"] } }, 
"type": "feature", "properties": { "CBCC_Name": "Mtaya-NB1-003-018", "CBCC_REF": "NB1-003-018", "District": "Nkhata Bay", "T/A": "Fukamalaza", "GVH": "Nkhungulu", "Village": "Muyewa", "Latitude": "-11.745387", "Longitude": "34.2478903"}, geometry": { "type": "Point", "coordinates": [34.2478903, -11.745387"] } }, 
"type": "feature", "properties": { "CBCC_Name": "Mukakashinganga", "CBCC_REF": "NB1-003-019", "District": "Nkhata Bay", "T/A": "Fukamalaza", "GVH": "Nkhungulu", "Village": "Shinganga", "Latitude": "-11.7653483", "Longitude": "34.236887"}, geometry": { "type": "Point", "coordinates": [34.236887, -11.7653483"] } }, 
"type": "feature", "properties": { "CBCC_Name": "Nkhole", "CBCC_REF": "NB1-003-020", "District": "Nkhata Bay", "T/A": "Fukamalaza", "GVH": "Nkhungulu", "Village": "Hanambo", "Latitude": "-11.7587824", "Longitude": "34.2389079"}, geometry": { "type": "Point", "coordinates": [34.2389079, -11.7587824"] } }, 
"type": "feature", "properties": { "CBCC_Name": "Tisinthe", "CBCC_REF": "NB1-003-021", "District": "Nkhata Bay", "T/A": "Fukamalaza", "GVH": "Nkhungulu", "Village": "Muyewa", "Latitude": "-11.7346477", "Longitude": "34.2422952"}, geometry": { "type": "Point", "coordinates": [34.2422952, -11.7346477"] } }, 
"type": "feature", "properties": { "CBCC_Name": "Dyaka", "CBCC_REF": "NB1-004-022", "District": "Nkhata Bay", "T/A": "Fukamalaza", "GVH": "Thuli", "Village": "Thuli", "Latitude": "-11.785992", "Longitude": "34.2273511"}, geometry": { "type": "Point", "coordinates": [34.2273511, -11.785992"] } }, 
"type": "feature", "properties": { "CBCC_Name": "Msambandopa", "CBCC_REF": "NB1-004-023", "District": "Nkhata Bay", "T/A": "Fukamalaza", "GVH": "Thuli", "Village": "Chiwiwi", "Latitude": "-11.7862331", "Longitude": "34.2323178"}, geometry": { "type": "Point", "coordinates": [34.2323178, -11.7862331"] } }, 
"type": "feature", "properties": { "CBCC_Name": "Muwanga", "CBCC_REF": "NB1-004-024", "District": "Nkhata Bay", "T/A": "Fukamalaza", "GVH": "Thuli", "Village": "Fukamalaza", "Latitude": "-11.7775371", "Longitude": "34.2228598"}, geometry": { "type": "Point", "coordinates": [34.2228598, -11.7775371"] } }, 
"type": "feature", "properties": { "CBCC_Name": "Tawonga I", "CBCC_REF": "NB1-004-025", "District": "Nkhata Bay", "T/A": "Fukamalaza", "GVH": "Thuli", "Village": "Zauka", "Latitude": "-11.7638894", "Longitude": "34.2169662"}, geometry": { "type": "Point", "coordinates": [34.2169662, -11.7638894"] } }, 
"type": "feature", "properties": { "CBCC_Name": "Tiyanjane-NB1-004-026", "CBCC_REF": "NB1-004-026", "District": "Nkhata Bay", "T/A": "Fukamalaza", "GVH": "Thuli", "Village": "Longwe", "Latitude": "-11.7775545", "Longitude": "34.2302109"}, geometry": { "type": "Point", "coordinates": [34.2302109, -11.7775545"] } }, 
"type": "feature", "properties": { "CBCC_Name": "Viwanga", "CBCC_REF": "NB1-004-027", "District": "Nkhata Bay", "T/A": "Fukamalaza", "GVH": "Thuli", "Village": "Viwanga", "Latitude": "-11.7854916", "Longitude": "34.2232308"}, geometry": { "type": "Point", "coordinates": [34.2232308, -11.7854916"] } }, 
"type": "feature", "properties": { "CBCC_Name": "Zauka", "CBCC_REF": "NB1-004-028", "District": "Nkhata Bay", "T/A": "Fukamalaza", "GVH": "Thuli", "Village": "Zauka", "Latitude": "-11.7744958", "Longitude": "34.2147863"}, geometry": { "type": "Point", "coordinates": [34.2147863, -11.7744958"] } }, 
"type": "feature", "properties": { "CBCC_Name": "Dun Donald", "CBCC_REF": "NB1-011-001", "District": "Nkhata Bay", "T/A": "Fukamalaza", "GVH": "Chumbo", "Village": "Damba", "Latitude": "-11.7539209", "Longitude": "34.2193045"}, geometry": { "type": "Point", "coordinates": [34.2193045, -11.7539209"] } }, 
"type": "feature", "properties": { "CBCC_Name": "Wawalala", "CBCC_REF": "NB1-012-013", "District": "Nkhata Bay", "T/A": "Fukamalaza", "GVH": "Mtambwa", "Village": "Chiwoli", "Latitude": "-11.7619604", "Longitude": "34.2267846"}, geometry": { "type": "Point", "coordinates": [34.2267846, -11.7619604"] } }, 
"type": "feature", "properties": { "CBCC_Name": "Kendekeza", "CBCC_REF": "LL1-001-001", "District": "Lilongwe", "T/A": "Kabudula", "GVH": "Chaombwa", "Village": "Kendekeza", "Latitude": "-13.8830265", "Longitude": "33.6557595"}, geometry": { "type": "Point", "coordinates": [33.6557595, -13.8830265"] } }, 
"type": "feature", "properties": { "CBCC_Name": "Mother Theresa", "CBCC_REF": "LL1-002-002", "District": "Lilongwe", "T/A": "Kabudula", "GVH": "Chawombwa", "Village": "Chaombwa", "Latitude": "-13.8928204", "Longitude": "33.6773291"}, geometry": { "type": "Point", "coordinates": [33.6773291, -13.8928204"] } }, 
"type": "feature", "properties": { "CBCC_Name": "Chaka china", "CBCC_REF": "LL1-003-003", "District": "Lilongwe", "T/A": "Kabudula", "GVH": "Chembe 1", "Village": "Chembe 1", "Latitude": "-13.8434473", "Longitude": "33.6662302"}, geometry": { "type": "Point", "coordinates": [33.6662302, -13.8434473"] } }, 
"type": "feature", "properties": { "CBCC_Name": "Kachule", "CBCC_REF": "LL1-003-004", "District": "Lilongwe", "T/A": "Kabudula", "GVH": "Chembe 1", "Village": "Chambala", "Latitude": "-13.7021903", "Longitude": "33.4702209"}, geometry": { "type": "Point", "coordinates": [33.4702209, -13.7021903"] } }, 
"type": "feature", "properties": { "CBCC_Name": "Chembe 2", "CBCC_REF": "LL1-004-005", "District": "Lilongwe", "T/A": "Kabudula", "GVH": "Chembe 2", "Village": "Chembe", "Latitude": "-13.7065833", "Longitude": "33.4780884"}, geometry": { "type": "Point", "coordinates": [33.4780884, -13.7065833"] } }, 
"type": "feature", "properties": { "CBCC_Name": "Mkwanda", "CBCC_REF": "LL1-004-007", "District": "Lilongwe", "T/A": "Kabudula", "GVH": "Chembe 2", "Village": "Mkwanda", "Latitude": "-13.7174448", "Longitude": "33.4822835"}, geometry": { "type": "Point", "coordinates": [33.4822835, -13.7174448"] } }, 
"type": "feature", "properties": { "CBCC_Name": "Sale", "CBCC_REF": "LL1-004-008", "District": "Lilongwe", "T/A": "Kabudula", "GVH": "Chembe 2", "Village": "Sale", "Latitude": "-13.6958129", "Longitude": "33.4710984"}, geometry": { "type": "Point", "coordinates": [33.4710984, -13.6958129"] } }, 
"type": "feature", "properties": { "CBCC_Name": "Khangale", "CBCC_REF": "LL1-004-006", "District": "Lilongwe", "T/A": "Kabudula", "GVH": "Chembe 2", "Village": "Khangale", "Latitude": "-13.7266067", "Longitude": "33.4792442"}, geometry": { "type": "Point", "coordinates": [33.4792442, -13.7266067"] } }, 
"type": "feature", "properties": { "CBCC_Name": "Chinyama", "CBCC_REF": "LL1-010-011", "District": "Lilongwe", "T/A": "Kabudula", "GVH": "Chinyama", "Village": "Chinyama", "Latitude": "-13.8187387", "Longitude": "33.6155438"}, geometry": { "type": "Point", "coordinates": [33.6155438, -13.8187387"] } }, 
"type": "feature", "properties": { "CBCC_Name": "M'thungu", "CBCC_REF": "LL1-010-012", "District": "Lilongwe", "T/A": "Kabudula", "GVH": "Chinyama", "Village": "M'thungu", "Latitude": "-13.840142", "Longitude": "33.6131957"}, geometry": { "type": "Point", "coordinates": [33.6131957, -13.840142"] } }, 
"type": "feature", "properties": { "CBCC_Name": "Binda", "CBCC_REF": "LL1-012-016", "District": "Lilongwe", "T/A": "Kabudula", "GVH": "Chitukula", "Village": "Binda", "Latitude": "-13.7545536", "Longitude": "33.5009267"}, geometry": { "type": "Point", "coordinates": [33.5009267, -13.7545536"] } }, 
"type": "feature", "properties": { "CBCC_Name": "Chimotha", "CBCC_REF": "LL1-012-017", "District": "Lilongwe", "T/A": "Kabudula", "GVH": "Chitukula", "Village": "Chimotha", "Latitude": "-13.8035993", "Longitude": "33.5109178"}, geometry": { "type": "Point", "coordinates": [33.5109178, -13.8035993"] } }, 
"type": "feature", "properties": { "CBCC_Name": "Chitukula", "CBCC_REF": "LL1-012-018", "District": "Lilongwe", "T/A": "Kabudula", "GVH": "Chitukula", "Village": "Chitukula", "Latitude": "-13.801359", "Longitude": "33.501763"}, geometry": { "type": "Point", "coordinates": [33.501763, -13.801359"] } }, 
"type": "feature", "properties": { "CBCC_Name": "Magombo", "CBCC_REF": "LL1-012-020", "District": "Lilongwe", "T/A": "Kabudula", "GVH": "Chitukula", "Village": "Magombo", "Latitude": "-13.7802274", "Longitude": "33.4993116"}, geometry": { "type": "Point", "coordinates": [33.4993116, -13.7802274"] } }, 
"type": "feature", "properties": { "CBCC_Name": "Masinja", "CBCC_REF": "LL1-012-021", "District": "Lilongwe", "T/A": "Kabudula", "GVH": "Chitukula", "Village": "Masinja", "Latitude": "-13.8263581", "Longitude": "33.4903184"}, geometry": { "type": "Point", "coordinates": [33.4903184, -13.8263581"] } }, 
"type": "feature", "properties": { "CBCC_Name": "Mlozi", "CBCC_REF": "LL1-012-022", "District": "Lilongwe", "T/A": "Kabudula", "GVH": "Chitukula", "Village": "Mlozi", "Latitude": "-13.7604575", "Longitude": "33.5028105"}, geometry": { "type": "Point", "coordinates": [33.5028105, -13.7604575"] } }, 
"type": "feature", "properties": { "CBCC_Name": "Mtembe", "CBCC_REF": "LL1-012-023", "District": "Lilongwe", "T/A": "Kabudula", "GVH": "Chitukula", "Village": "Mtembe", "Latitude": "-13.8107777", "Longitude": "33.4976369"}, geometry": { "type": "Point", "coordinates": [33.4976369, -13.8107777"] } }, 
"type": "feature", "properties": { "CBCC_Name": "Ndawala", "CBCC_REF": "LL1-012-024", "District": "Lilongwe", "T/A": "Kabudula", "GVH": "Chitukula", "Village": "Ndawala", "Latitude": "-13.7945471", "Longitude": "33.4924503"}, geometry": { "type": "Point", "coordinates": [33.4924503, -13.7945471"] } }, 
"type": "feature", "properties": { "CBCC_Name": "Kabwana", "CBCC_REF": "LL1-012-019", "District": "Lilongwe", "T/A": "Kabudula", "GVH": "Chitukula", "Village": "Kabwana", "Latitude": "-13.8068809", "Longitude": "33.4854454"}, geometry": { "type": "Point", "coordinates": [33.4854454, -13.8068809"] } }, 
"type": "feature", "properties": { "CBCC_Name": "Deya", "CBCC_REF": "LL1-015-025", "District": "Lilongwe", "T/A": "Kabudula", "GVH": "Deya", "Village": "Deya", "Latitude": "-13.8754489", "Longitude": "33.7185176"}, geometry": { "type": "Point", "coordinates": [33.7185176, -13.8754489"] } }, 
"type": "feature", "properties": { "CBCC_Name": "Chembe 1", "CBCC_REF": "LL1-018-029", "District": "Lilongwe", "T/A": "Kabudula", "GVH": "Kabudula", "Village": "Chembe", "Latitude": "-13.8420486", "Longitude": "33.4525677"}, geometry": { "type": "Point", "coordinates": [33.4525677, -13.8420486"] } }, 
"type": "feature", "properties": { "CBCC_Name": "Kabudula", "CBCC_REF": "LL1-018-030", "District": "Lilongwe", "T/A": "Kabudula", "GVH": "Kabudula", "Village": "Kabudula", "Latitude": "-13.8210973", "Longitude": "33.4509084"}, geometry": { "type": "Point", "coordinates": [33.4509084, -13.8210973"] } }, 
"type": "feature", "properties": { "CBCC_Name": "Kadala", "CBCC_REF": "LL1-019-031", "District": "Lilongwe", "T/A": "Kabudula", "GVH": "Kadala", "Village": "Kadala", "Latitude": "-13.8534648", "Longitude": "33.4948024"}, geometry": { "type": "Point", "coordinates": [33.4948024, -13.8534648"] } }, 
"type": "feature", "properties": { "CBCC_Name": "Makumbi-LL1-020-033", "CBCC_REF": "LL1-020-033", "District": "Lilongwe", "T/A": "Kabudula", "GVH": "Kalimbira 1", "Village": "Kalimbira 1", "Latitude": "-13.8620877", "Longitude": "33.6510462"}, geometry": { "type": "Point", "coordinates": [33.6510462, -13.8620877"] } }, 
"type": "feature", "properties": { "CBCC_Name": "Tsumba", "CBCC_REF": "LL1-022-035", "District": "Lilongwe", "T/A": "Kabudula", "GVH": "Kambalame", "Village": "Tsumba", "Latitude": "-13.7164929", "Longitude": "33.4868787"}, geometry": { "type": "Point", "coordinates": [33.4868787, -13.7164929"] } }, 
"type": "feature", "properties": { "CBCC_Name": "Kambalame-LL1-022-034", "CBCC_REF": "LL1-022-034", "District": "Lilongwe", "T/A": "Kabudula", "GVH": "Kambalame", "Village": "Kambalame", "Latitude": "-13.7373739", "Longitude": "33.4726888"}, geometry": { "type": "Point", "coordinates": [33.4726888, -13.7373739"] } }, 
"type": "feature", "properties": { "CBCC_Name": "Kambera 2", "CBCC_REF": "LL1-023-036", "District": "Lilongwe", "T/A": "Kabudula", "GVH": "Kambira", "Village": "Kambira 2", "Latitude": "-13.79875", "Longitude": "33.5241565"}, geometry": { "type": "Point", "coordinates": [33.5241565, -13.79875"] } }, 
"type": "feature", "properties": { "CBCC_Name": "Kambira 1", "CBCC_REF": "LL1-023-037", "District": "Lilongwe", "T/A": "Kabudula", "GVH": "Kambira", "Village": "Kambira 1", "Latitude": "-13.7914855", "Longitude": "33.5138202"}, geometry": { "type": "Point", "coordinates": [33.5138202, -13.7914855"] } }, 
"type": "feature", "properties": { "CBCC_Name": "Kanjere", "CBCC_REF": "LL1-025-039", "District": "Lilongwe", "T/A": "Kabudula", "GVH": "Kapovu", "Village": "Kapovo", "Latitude": "-13.9251889", "Longitude": "33.5252333"}, geometry": { "type": "Point", "coordinates": [33.5252333, -13.9251889"] } }, 
"type": "feature", "properties": { "CBCC_Name": "Kasambwe", "CBCC_REF": "LL1-026-041", "District": "Lilongwe", "T/A": "Kabudula", "GVH": "Kasambwe", "Village": "Kasambwe", "Latitude": "-13.7902558", "Longitude": "33.4216063"}, geometry": { "type": "Point", "coordinates": [33.4216063, -13.7902558"] } }, 
"type": "feature", "properties": { "CBCC_Name": "Khudzumba", "CBCC_REF": "LL1-029-043", "District": "Lilongwe", "T/A": "Kabudula", "GVH": "Khudzumba", "Village": "Khudzumba", "Latitude": "-13.8482489", "Longitude": "33.6287643"}, geometry": { "type": "Point", "coordinates": [33.6287643, -13.8482489"] } }, 
"type": "feature", "properties": { "CBCC_Name": "Chikutu", "CBCC_REF": "LL1-032-044", "District": "Lilongwe", "T/A": "Kabudula", "GVH": "Kudoko", "Village": "Kudoko", "Latitude": "-13.8548323", "Longitude": "33.7145589"}, geometry": { "type": "Point", "coordinates": [33.7145589, -13.8548323"] } }, 
"type": "feature", "properties": { "CBCC_Name": "Kawangu", "CBCC_REF": "LL1-035-045", "District": "Lilongwe", "T/A": "Kabudula", "GVH": "Mabwera", "Village": "Mabwera", "Latitude": "-13.7360934", "Longitude": "33.5171644"}, geometry": { "type": "Point", "coordinates": [33.5171644, -13.7360934"] } }, 
"type": "feature", "properties": { "CBCC_Name": "Malovu", "CBCC_REF": "LL1-037-046", "District": "Lilongwe", "T/A": "Kabudula", "GVH": "Malovu", "Village": "Malovu", "Latitude": "-13.726026", "Longitude": "33.5558231"}, geometry": { "type": "Point", "coordinates": [33.5558231, -13.726026"] } }, 
"type": "feature", "properties": { "CBCC_Name": "Mambo", "CBCC_REF": "LL1-038-047", "District": "Lilongwe", "T/A": "Kabudula", "GVH": "Mambo", "Village": "Mambo", "Latitude": "-13.8183549", "Longitude": "33.4516797"}, geometry": { "type": "Point", "coordinates": [33.4516797, -13.8183549"] } }, 
"type": "feature", "properties": { "CBCC_Name": "Mkhonje", "CBCC_REF": "LL1-044-055", "District": "Lilongwe", "T/A": "Kabudula", "GVH": "Mtuwayivi", "Village": "Mkhonje", "Latitude": "-13.8871008", "Longitude": "33.473216"}, geometry": { "type": "Point", "coordinates": [33.473216, -13.8871008"] } }, 
"type": "feature", "properties": { "CBCC_Name": "Ngwangwa", "CBCC_REF": "LL1-047-058", "District": "Lilongwe", "T/A": "Kabudula", "GVH": "Ngwangwa", "Village": "Ngwangwa", "Latitude": "-13.8480548", "Longitude": "33.6839873"}, geometry": { "type": "Point", "coordinates": [33.6839873, -13.8480548"] } }, 
"type": "feature", "properties": { "CBCC_Name": "Nthulu", "CBCC_REF": "LL1-048-060", "District": "Lilongwe", "T/A": "Kabudula", "GVH": "Nsundula", "Village": "Nsundula", "Latitude": "-13.7429902", "Longitude": "33.5296194"}, geometry": { "type": "Point", "coordinates": [33.5296194, -13.7429902"] } }, 
"type": "feature", "properties": { "CBCC_Name": "Mapala", "CBCC_REF": "LL1-050-061", "District": "Lilongwe", "T/A": "Kabudula", "GVH": "Sekese", "Village": "Sekese", "Latitude": "-13.7824384", "Longitude": "33.466313"}, geometry": { "type": "Point", "coordinates": [33.466313, -13.7824384"] } }, 
"type": "feature", "properties": { "CBCC_Name": "Muula", "CBCC_REF": "LL1-050-062", "District": "Lilongwe", "T/A": "Kabudula", "GVH": "Sekese", "Village": "Nyundo", "Latitude": "-13.7490498", "Longitude": "33.4720864"}, geometry": { "type": "Point", "coordinates": [33.4720864, -13.7490498"] } }, 
"type": "feature", "properties": { "CBCC_Name": "Thundu", "CBCC_REF": "LL1-050-063", "District": "Lilongwe", "T/A": "Kabudula", "GVH": "Sekese", "Village": "Chadza", "Latitude": "-13.7638861", "Longitude": "33.4682684"}, geometry": { "type": "Point", "coordinates": [33.4682684, -13.7638861"] } }, 
"type": "feature", "properties": { "CBCC_Name": "Makosana", "CBCC_REF": "LL1-051-069", "District": "Lilongwe", "T/A": "Kabudula", "GVH": "Thumba 2", "Village": "Makosana", "Latitude": "-13.9078574", "Longitude": "33.5350121"}, geometry": { "type": "Point", "coordinates": [33.5350121, -13.9078574"] } }, 
"type": "feature", "properties": { "CBCC_Name": "Milala", "CBCC_REF": "LL1-051-070", "District": "Lilongwe", "T/A": "Kabudula", "GVH": "Thumba 2", "Village": "Chawuma", "Latitude": "-13.9127036", "Longitude": "33.539061"}, geometry": { "type": "Point", "coordinates": [33.539061, -13.9127036"] } }, 
"type": "feature", "properties": { "CBCC_Name": "Nsanga", "CBCC_REF": "LL1-051-071", "District": "Lilongwe", "T/A": "Kabudula", "GVH": "Thumba 2", "Village": "Ntoso", "Latitude": "-13.9182522", "Longitude": "33.5518869"}, geometry": { "type": "Point", "coordinates": [33.5518869, -13.9182522"] } }, 
"type": "feature", "properties": { "CBCC_Name": "Tsapa", "CBCC_REF": "LL1-051-072", "District": "Lilongwe", "T/A": "Kabudula", "GVH": "Thumba 2", "Village": "Thumba 2", "Latitude": "-13.9252855", "Longitude": "33.5408909"}, geometry": { "type": "Point", "coordinates": [33.5408909, -13.9252855"] } }, 
"type": "feature", "properties": { "CBCC_Name": "Chilipamoto", "CBCC_REF": "LL1-061-009", "District": "Lilongwe", "T/A": "Kabudula", "GVH": "Chilipamoto", "Village": "Chilipamoto", "Latitude": "-13.8881046", "Longitude": "33.5664706"}, geometry": { "type": "Point", "coordinates": [33.5664706, -13.8881046"] } }, 
"type": "feature", "properties": { "CBCC_Name": "Chikhutu", "CBCC_REF": "LL1-062-013", "District": "Lilongwe", "T/A": "Kabudula", "GVH": "Chisinga", "Village": "Chikhutu", "Latitude": "-13.8225284", "Longitude": "33.4958938"}, geometry": { "type": "Point", "coordinates": [33.4958938, -13.8225284"] } }, 
"type": "feature", "properties": { "CBCC_Name": "Chiswetche", "CBCC_REF": "LL1-063-014", "District": "Lilongwe", "T/A": "Kabudula", "GVH": "Chiswetche", "Village": "Chiswetche", "Latitude": "-13.7019321", "Longitude": "33.4804975"}, geometry": { "type": "Point", "coordinates": [33.4804975, -13.7019321"] } }, 
"type": "feature", "properties": { "CBCC_Name": "Chithawale", "CBCC_REF": "LL1-064-015", "District": "Lilongwe", "T/A": "Kabudula", "GVH": "Chithawale", "Village": "Chithawale", "Latitude": "-13.9008301", "Longitude": "33.5880058"}, geometry": { "type": "Point", "coordinates": [33.5880058, -13.9008301"] } }, 
"type": "feature", "properties": { "CBCC_Name": "Namkumba", "CBCC_REF": "LL1-065-057", "District": "Lilongwe", "T/A": "Kabudula", "GVH": "Namkumba", "Village": "Namkumba", "Latitude": "-13.8815619", "Longitude": "33.6225202"}, geometry": { "type": "Point", "coordinates": [33.6225202, -13.8815619"] } }, 
"type": "feature", "properties": { "CBCC_Name": "Chikumba", "CBCC_REF": "LL1-065-026", "District": "Lilongwe", "T/A": "Kabudula", "GVH": "Furayili", "Village": "Chikumba", "Latitude": "-13.8952973", "Longitude": "33.4423691"}, geometry": { "type": "Point", "coordinates": [33.4423691, -13.8952973"] } }, 
"type": "feature", "properties": { "CBCC_Name": "Maula", "CBCC_REF": "LL1-066-027", "District": "Lilongwe", "T/A": "Kabudula", "GVH": "Gausi", "Village": "Nkhosi", "Latitude": "-13.7927793", "Longitude": "33.4801426"}, geometry": { "type": "Point", "coordinates": [33.4801426, -13.7927793"] } }, 
"type": "feature", "properties": { "CBCC_Name": "Ndaula", "CBCC_REF": "LL1-066-028", "District": "Lilongwe", "T/A": "Kabudula", "GVH": "Gausi", "Village": "Vimango", "Latitude": "-13.7979172", "Longitude": "33.4839976"}, geometry": { "type": "Point", "coordinates": [33.4839976, -13.7979172"] } }, 
"type": "feature", "properties": { "CBCC_Name": "Mtawa 2", "CBCC_REF": "LL1-067-038", "District": "Lilongwe", "T/A": "Kabudula", "GVH": "Kandala", "Village": "Chatowa", "Latitude": "-13.8387712", "Longitude": "33.4959907"}, geometry": { "type": "Point", "coordinates": [33.4959907, -13.8387712"] } }, 
"type": "feature", "properties": { "CBCC_Name": "Kapukwa", "CBCC_REF": "LL1-068-040", "District": "Lilongwe", "T/A": "Kabudula", "GVH": "Kapukwa", "Village": "Kapukwa", "Latitude": "-13.8947517", "Longitude": "33.5665358"}, geometry": { "type": "Point", "coordinates": [33.5665358, -13.8947517"] } }, 
"type": "feature", "properties": { "CBCC_Name": "Katema", "CBCC_REF": "LL1-069-042", "District": "Lilongwe", "T/A": "Kabudula", "GVH": "Katema", "Village": "Katema", "Latitude": "-13.7828822", "Longitude": "33.601198"}, geometry": { "type": "Point", "coordinates": [33.601198, -13.7828822"] } }, 
"type": "feature", "properties": { "CBCC_Name": "Manyenje", "CBCC_REF": "LL1-070-048", "District": "Lilongwe", "T/A": "Kabudula", "GVH": "Manyenje", "Village": "Manyenje", "Latitude": "-13.8949248", "Longitude": "33.4533105"}, geometry": { "type": "Point", "coordinates": [33.4533105, -13.8949248"] } }, 
"type": "feature", "properties": { "CBCC_Name": "Mataya", "CBCC_REF": "LL1-071-049", "District": "Lilongwe", "T/A": "Kabudula", "GVH": "Mataya", "Village": "Mataya", "Latitude": "-13.8644222", "Longitude": "33.4245673"}, geometry": { "type": "Point", "coordinates": [33.4245673, -13.8644222"] } }, 
"type": "feature", "properties": { "CBCC_Name": "Mchoka", "CBCC_REF": "LL1-072-050", "District": "Lilongwe", "T/A": "Kabudula", "GVH": "Mchoka", "Village": "Mchoka", "Latitude": "-13.8832", "Longitude": "33.545672"}, geometry": { "type": "Point", "coordinates": [33.545672, -13.8832"] } }, 
"type": "feature", "properties": { "CBCC_Name": "Mkwambula", "CBCC_REF": "LL1-073-051", "District": "Lilongwe", "T/A": "Kabudula", "GVH": "Mkwambula", "Village": "Mkwambula", "Latitude": "-13.8570096", "Longitude": "33.6736525"}, geometry": { "type": "Point", "coordinates": [33.6736525, -13.8570096"] } }, 
"type": "feature", "properties": { "CBCC_Name": "Moffat", "CBCC_REF": "LL1-074-052", "District": "Lilongwe", "T/A": "Kabudula", "GVH": "Moffat", "Village": "Moffat", "Latitude": "-13.7770105", "Longitude": "33.5019473"}, geometry": { "type": "Point", "coordinates": [33.5019473, -13.7770105"] } }, 
"type": "feature", "properties": { "CBCC_Name": "Mphandauyo 1", "CBCC_REF": "LL1-075-053", "District": "Lilongwe", "T/A": "Kabudula", "GVH": "Mphandauyo", "Village": "Mphandauyo", "Latitude": "-13.8228812", "Longitude": "33.5947992"}, geometry": { "type": "Point", "coordinates": [33.5947992, -13.8228812"] } }, 
"type": "feature", "properties": { "CBCC_Name": "Mtavu", "CBCC_REF": "LL1-076-054", "District": "Lilongwe", "T/A": "Kabudula", "GVH": "Mtavu", "Village": "Mtavu", "Latitude": "-13.8725512", "Longitude": "33.5571297"}, geometry": { "type": "Point", "coordinates": [33.5571297, -13.8725512"] } }, 
"type": "feature", "properties": { "CBCC_Name": "Chabuka", "CBCC_REF": "LL1-077-056", "District": "Lilongwe", "T/A": "Kabudula", "GVH": "Nalikwangwala", "Village": "Chabuka", "Latitude": "-13.8051188", "Longitude": "33.4398727"}, geometry": { "type": "Point", "coordinates": [33.4398727, -13.8051188"] } }, 
"type": "feature", "properties": { "CBCC_Name": "Nkhwiwale", "CBCC_REF": "LL1-078-059", "District": "Lilongwe", "T/A": "Kabudula", "GVH": "Nkhwiwale", "Village": "Nkhwiwale", "Latitude": "-13.859036", "Longitude": "33.6776556"}, geometry": { "type": "Point", "coordinates": [33.6776556, -13.859036"] } }, 
"type": "feature", "properties": { "CBCC_Name": "Tengo", "CBCC_REF": "LL1-079-064", "District": "Lilongwe", "T/A": "Kabudula", "GVH": "Tengo", "Village": "Tengo", "Latitude": "-13.7305371", "Longitude": "33.4896582"}, geometry": { "type": "Point", "coordinates": [33.4896582, -13.7305371"] } }, 
"type": "feature", "properties": { "CBCC_Name": "Chilipa", "CBCC_REF": "LL1-080-065", "District": "Lilongwe", "T/A": "Kabudula", "GVH": "Thaulo", "Village": "Thaulo", "Latitude": "-13.8769525", "Longitude": "33.5662901"}, geometry": { "type": "Point", "coordinates": [33.5662901, -13.8769525"] } }, 
"type": "feature", "properties": { "CBCC_Name": "Thumba 1", "CBCC_REF": "LL1-081-067", "District": "Lilongwe", "T/A": "Kabudula", "GVH": "Thumba 1", "Village": "Thumba", "Latitude": "-13.8475102", "Longitude": "33.4348584"}, geometry": { "type": "Point", "coordinates": [33.4348584, -13.8475102"] } }, 
"type": "feature", "properties": { "CBCC_Name": "Thumba 2", "CBCC_REF": "LL1-081-068", "District": "Lilongwe", "T/A": "Kabudula", "GVH": "Thumba 1", "Village": "Mthala", "Latitude": "-13.8596074", "Longitude": "33.4402261"}, geometry": { "type": "Point", "coordinates": [33.4402261, -13.8596074"] } }, 
"type": "feature", "properties": { "CBCC_Name": "Kamtengo", "CBCC_REF": "LL1-081-066", "District": "Lilongwe", "T/A": "Kabudula", "GVH": "Thumba 1", "Village": "Kamtengo", "Latitude": "-13.8422278", "Longitude": "33.419725"}, geometry": { "type": "Point", "coordinates": [33.419725, -13.8422278"] } }, 
"type": "feature", "properties": { "CBCC_Name": "Kalimbira 2", "CBCC_REF": "LL1-086-032", "District": "Lilongwe", "T/A": "Kabudula", "GVH": "Kalimbila", "Village": "Kalimbila", "Latitude": "-13.8463399", "Longitude": "33.6722855"}, geometry": { "type": "Point", "coordinates": [33.6722855, -13.8463399"] } }, 
"type": "feature", "properties": { "CBCC_Name": "Chilombo", "CBCC_REF": "LL1-096-010", "District": "Lilongwe", "T/A": "Kabudula", "GVH": "Chilombo", "Village": "Chilombo", "Latitude": "-13.8680694", "Longitude": "33.6744699"}, geometry": { "type": "Point", "coordinates": [33.6744699, -13.8680694"] } }, 
"type": "feature", "properties": { "CBCC_Name": "Bright Future", "CBCC_REF": "KK1-014-002", "District": "Nkhotakota", "T/A": "Kafuzira", "GVH": "Chibalepamaso", "Village": "Mwasambo", "Latitude": "-12.3234631", "Longitude": "34.0069949"}, geometry": { "type": "Point", "coordinates": [34.0069949, -12.3234631"] } }, 
"type": "feature", "properties": { "CBCC_Name": "Chinungu", "CBCC_REF": "KK1-014-004", "District": "Nkhotakota", "T/A": "Kafuzira", "GVH": "Chibalepamaso", "Village": "Paulosi", "Latitude": "-12.3212832", "Longitude": "34.0001711"}, geometry": { "type": "Point", "coordinates": [34.0001711, -12.3212832"] } }, 
"type": "feature", "properties": { "CBCC_Name": "Kasitu CCAP", "CBCC_REF": "KK1-014-005", "District": "Nkhotakota", "T/A": "Kafuzira", "GVH": "Chibalepamaso", "Village": "Chibalepamaso", "Latitude": "-12.3129228", "Longitude": "34.0177465"}, geometry": { "type": "Point", "coordinates": [34.0177465, -12.3129228"] } }, 
"type": "feature", "properties": { "CBCC_Name": "Chikondi-KK1-014-003", "CBCC_REF": "KK1-014-003", "District": "Nkhotakota", "T/A": "Kafuzira", "GVH": "Chibalepamaso", "Village": "Chibalepamaso", "Latitude": "-12.309047", "Longitude": "34.0186143"}, geometry": { "type": "Point", "coordinates": [34.0186143, -12.309047"] } }, 
"type": "feature", "properties": { "CBCC_Name": "Chimgonda", "CBCC_REF": "KK1-015-008", "District": "Nkhotakota", "T/A": "Kafuzira", "GVH": "Chimgonda", "Village": "Chimgonda 1", "Latitude": "-12.2437867", "Longitude": "33.977335"}, geometry": { "type": "Point", "coordinates": [33.977335, -12.2437867"] } }, 
"type": "feature", "properties": { "CBCC_Name": "Kaweluwelu", "CBCC_REF": "KK1-015-009", "District": "Nkhotakota", "T/A": "Kafuzira", "GVH": "Chimgonda", "Village": "Thung'unda", "Latitude": "-12.2612519", "Longitude": "33.9619979"}, geometry": { "type": "Point", "coordinates": [33.9619979, -12.2612519"] } }, 
"type": "feature", "properties": { "CBCC_Name": "Jalawe-KK1-016-015", "CBCC_REF": "KK1-016-015", "District": "Nkhotakota", "T/A": "Kafuzira", "GVH": "Josia", "Village": "Kamkanda", "Latitude": "-12.33216", "Longitude": "33.754765"}, geometry": { "type": "Point", "coordinates": [33.754765, -12.33216"] } }, 
"type": "feature", "properties": { "CBCC_Name": "Mugwalamu", "CBCC_REF": "KK1-016-016", "District": "Nkhotakota", "T/A": "Kafuzira", "GVH": "Josia", "Village": "Joyiya", "Latitude": "-12.3165774", "Longitude": "33.7597875"}, geometry": { "type": "Point", "coordinates": [33.7597875, -12.3165774"] } }, 
"type": "feature", "properties": { "CBCC_Name": "Chisomo 2-KK1-017-017", "CBCC_REF": "KK1-017-017", "District": "Nkhotakota", "T/A": "Kafuzira", "GVH": "Kafuzira", "Village": "Kamphandira", "Latitude": "-12.31374", "Longitude": "34.0222433"}, geometry": { "type": "Point", "coordinates": [34.0222433, -12.31374"] } }, 
"type": "feature", "properties": { "CBCC_Name": "Kafunzira", "CBCC_REF": "KK1-017-018", "District": "Nkhotakota", "T/A": "Kafuzira", "GVH": "Kafuzira", "Village": "Chimphanda", "Latitude": "-12.309714", "Longitude": "34.0293595"}, geometry": { "type": "Point", "coordinates": [34.0293595, -12.309714"] } }, 
"type": "feature", "properties": { "CBCC_Name": "Mphamba", "CBCC_REF": "KK1-017-019", "District": "Nkhotakota", "T/A": "Kafuzira", "GVH": "Kafuzira", "Village": "Mphamba", "Latitude": "-12.3354248", "Longitude": "34.0255469"}, geometry": { "type": "Point", "coordinates": [34.0255469, -12.3354248"] } }, 
"type": "feature", "properties": { "CBCC_Name": "Chiphumbulu", "CBCC_REF": "KK1-018-022", "District": "Nkhotakota", "T/A": "Kafuzira", "GVH": "Kamphambale", "Village": "Chimweyo", "Latitude": "-12.2601808", "Longitude": "33.9886162"}, geometry": { "type": "Point", "coordinates": [33.9886162, -12.2601808"] } }, 
"type": "feature", "properties": { "CBCC_Name": "Bethel", "CBCC_REF": "KK1-018-021", "District": "Nkhotakota", "T/A": "Kafuzira", "GVH": "Kamphambale", "Village": "Malamba", "Latitude": "-12.2537566", "Longitude": "33.9919217"}, geometry": { "type": "Point", "coordinates": [33.9919217, -12.2537566"] } }, 
"type": "feature", "properties": { "CBCC_Name": "Kamphambale", "CBCC_REF": "KK1-018-023", "District": "Nkhotakota", "T/A": "Kafuzira", "GVH": "Kamphambale", "Village": "Kamphambale", "Latitude": "-12.246305", "Longitude": "33.9979452"}, geometry": { "type": "Point", "coordinates": [33.9979452, -12.246305"] } }, 
"type": "feature", "properties": { "CBCC_Name": "Msauka", "CBCC_REF": "KK1-018-024", "District": "Nkhotakota", "T/A": "Kafuzira", "GVH": "Kamphambale", "Village": "Mchuwa", "Latitude": "-12.2373901", "Longitude": "33.9885608"}, geometry": { "type": "Point", "coordinates": [33.9885608, -12.2373901"] } }, 
"type": "feature", "properties": { "CBCC_Name": "Kapandu", "CBCC_REF": "KK1-019-030", "District": "Nkhotakota", "T/A": "Kafuzira", "GVH": "Mbiwi", "Village": "William", "Latitude": "-12.2679853", "Longitude": "33.9949699"}, geometry": { "type": "Point", "coordinates": [33.9949699, -12.2679853"] } }, 
"type": "feature", "properties": { "CBCC_Name": "Chipeya", "CBCC_REF": "KK1-020-033", "District": "Nkhotakota", "T/A": "Kafuzira", "GVH": "Mpeta", "Village": "Mpeta", "Latitude": "-12.2348431", "Longitude": "33.9950137"}, geometry": { "type": "Point", "coordinates": [33.9950137, -12.2348431"] } }, 
"type": "feature", "properties": { "CBCC_Name": "Thone", "CBCC_REF": "KK1-020-034", "District": "Nkhotakota", "T/A": "Kafuzira", "GVH": "Mpeta", "Village": "Indoda", "Latitude": "-12.2487763", "Longitude": "33.98238"}, geometry": { "type": "Point", "coordinates": [33.98238, -12.2487763"] } }, 
"type": "feature", "properties": { "CBCC_Name": "Tafika", "CBCC_REF": "KK1-021-036", "District": "Nkhotakota", "T/A": "Kafuzira", "GVH": "Mwazanduwa", "Village": "Mwazanduwa", "Latitude": "-12.2997914", "Longitude": "33.9723386"}, geometry": { "type": "Point", "coordinates": [33.9723386, -12.2997914"] } }, 
"type": "feature", "properties": { "CBCC_Name": "Kaluwe", "CBCC_REF": "KK1-021-039", "District": "Nkhotakota", "T/A": "Kafuzira", "GVH": "Tambala", "Village": "Nthanda", "Latitude": "-12.3128818", "Longitude": "33.7781475"}, geometry": { "type": "Point", "coordinates": [33.7781475, -12.3128818"] } }, 
"type": "feature", "properties": { "CBCC_Name": "Kazumira", "CBCC_REF": "KK1-021-040", "District": "Nkhotakota", "T/A": "Kafuzira", "GVH": "Tambala", "Village": "Mwafunda", "Latitude": "-12.3059224", "Longitude": "33.763714"}, geometry": { "type": "Point", "coordinates": [33.763714, -12.3059224"] } }, 
"type": "feature", "properties": { "CBCC_Name": "Chapasuka", "CBCC_REF": "KK1-031-001", "District": "Nkhotakota", "T/A": "Kafuzira", "GVH": "Chapasuka", "Village": "Chapasuka", "Latitude": "-12.2958105", "Longitude": "33.9837896"}, geometry": { "type": "Point", "coordinates": [33.9837896, -12.2958105"] } }, 
"type": "feature", "properties": { "CBCC_Name": "Teketu", "CBCC_REF": "KK1-032-006", "District": "Nkhotakota", "T/A": "Kafuzira", "GVH": "Chigadula", "Village": "Kanyang'ondo", "Latitude": "-12.320933", "Longitude": "34.0139322"}, geometry": { "type": "Point", "coordinates": [34.0139322, -12.320933"] } }, 
"type": "feature", "properties": { "CBCC_Name": "Chikumbi", "CBCC_REF": "KK1-033-007", "District": "Nkhotakota", "T/A": "Kafuzira", "GVH": "Chikasa", "Village": "Chikumbi", "Latitude": "-12.282845", "Longitude": "33.9960212"}, geometry": { "type": "Point", "coordinates": [33.9960212, -12.282845"] } }, 
"type": "feature", "properties": { "CBCC_Name": "Kabingiza", "CBCC_REF": "KK1-034-010", "District": "Nkhotakota", "T/A": "Kafuzira", "GVH": "Chimpunungu", "Village": "Mtchuka", "Latitude": "-12.2927241", "Longitude": "33.9966717"}, geometry": { "type": "Point", "coordinates": [33.9966717, -12.2927241"] } }, 
"type": "feature", "properties": { "CBCC_Name": "Our Time-KK1-034-011", "CBCC_REF": "KK1-034-011", "District": "Nkhotakota", "T/A": "Kafuzira", "GVH": "Chimpunungu", "Village": "Chimpunungu", "Latitude": "-12.2933979", "Longitude": "33.9936687"}, geometry": { "type": "Point", "coordinates": [33.9936687, -12.2933979"] } }, 
"type": "feature", "properties": { "CBCC_Name": "Chikoko", "CBCC_REF": "KK1-036-012", "District": "Nkhotakota", "T/A": "Kafuzira", "GVH": "Gwanza", "Village": "Gwanza", "Latitude": "-12.3311642", "Longitude": "33.8521055"}, geometry": { "type": "Point", "coordinates": [33.8521055, -12.3311642"] } }, 
"type": "feature", "properties": { "CBCC_Name": "Chilowosi", "CBCC_REF": "KK1-036-013", "District": "Nkhotakota", "T/A": "Kafuzira", "GVH": "Gwanza", "Village": "Kalodza", "Latitude": "-12.342638", "Longitude": "33.8372545"}, geometry": { "type": "Point", "coordinates": [33.8372545, -12.342638"] } }, 
"type": "feature", "properties": { "CBCC_Name": "Ndundundu", "CBCC_REF": "KK1-036-014", "District": "Nkhotakota", "T/A": "Kafuzira", "GVH": "Gwanza", "Village": "Mtemasoyo", "Latitude": "-12.2774335", "Longitude": "33.838776"}, geometry": { "type": "Point", "coordinates": [33.838776, -12.2774335"] } }, 
"type": "feature", "properties": { "CBCC_Name": "Chamboli", "CBCC_REF": "KK1-039-020", "District": "Nkhotakota", "T/A": "Kafuzira", "GVH": "Kaliwawala", "Village": "Dowela", "Latitude": "-12.3397193", "Longitude": "33.8130789"}, geometry": { "type": "Point", "coordinates": [33.8130789, -12.3397193"] } }, 
"type": "feature", "properties": { "CBCC_Name": "Chamalukwa", "CBCC_REF": "KK1-040-025", "District": "Nkhotakota", "T/A": "Kafuzira", "GVH": "Katumbi", "Village": "Mtami", "Latitude": "-12.3233711", "Longitude": "33.7911921"}, geometry": { "type": "Point", "coordinates": [33.7911921, -12.3233711"] } }, 
"type": "feature", "properties": { "CBCC_Name": "Lupachi", "CBCC_REF": "KK1-040-026", "District": "Nkhotakota", "T/A": "Kafuzira", "GVH": "Katumbi", "Village": "Katumbi", "Latitude": "-12.319973", "Longitude": "33.7790258"}, geometry": { "type": "Point", "coordinates": [33.7790258, -12.319973"] } }, 
"type": "feature", "properties": { "CBCC_Name": "Kazinda-KK1-042-027", "CBCC_REF": "KK1-042-027", "District": "Nkhotakota", "T/A": "Kafuzira", "GVH": "Kayiwawalo", "Village": "Chilakata", "Latitude": "-12.3309037", "Longitude": "33.8106477"}, geometry": { "type": "Point", "coordinates": [33.8106477, -12.3309037"] } }, 
"type": "feature", "properties": { "CBCC_Name": "Teyesenawo", "CBCC_REF": "KK1-043-029", "District": "Nkhotakota", "T/A": "Kafuzira", "GVH": "Mazengera", "Village": "Chiputa", "Latitude": "-12.3510135", "Longitude": "33.9686225"}, geometry": { "type": "Point", "coordinates": [33.9686225, -12.3510135"] } }, 
"type": "feature", "properties": { "CBCC_Name": "Kamjosi", "CBCC_REF": "KK1-043-028", "District": "Nkhotakota", "T/A": "Kafuzira", "GVH": "Mazengera", "Village": "Mazengera", "Latitude": "-12.3297408", "Longitude": "33.9797818"}, geometry": { "type": "Point", "coordinates": [33.9797818, -12.3297408"] } }, 
"type": "feature", "properties": { "CBCC_Name": "Chisomo-KK1-045-031", "CBCC_REF": "KK1-045-031", "District": "Nkhotakota", "T/A": "Kafuzira", "GVH": "Mbwizi", "Village": "Mbwizi", "Latitude": "-12.3359711", "Longitude": "33.9926552"}, geometry": { "type": "Point", "coordinates": [33.9926552, -12.3359711"] } }, 
"type": "feature", "properties": { "CBCC_Name": "Tadala", "CBCC_REF": "KK1-045-032", "District": "Nkhotakota", "T/A": "Kafuzira", "GVH": "Mbwizi", "Village": "Maswanjo", "Latitude": "-12.3401577", "Longitude": "34.0039512"}, geometry": { "type": "Point", "coordinates": [34.0039512, -12.3401577"] } }, 
"type": "feature", "properties": { "CBCC_Name": "Kazomba", "CBCC_REF": "KK1-047-035", "District": "Nkhotakota", "T/A": "Kafuzira", "GVH": "Msagona", "Village": "Timoti", "Latitude": "-12.3008243", "Longitude": "33.8334003"}, geometry": { "type": "Point", "coordinates": [33.8334003, -12.3008243"] } }, 
"type": "feature", "properties": { "CBCC_Name": "Kachule", "CBCC_REF": "KK1-048-037", "District": "Nkhotakota", "T/A": "Kafuzira", "GVH": "Mzidza", "Village": "Kayiwala", "Latitude": "-12.3473189", "Longitude": "34.0157115"}, geometry": { "type": "Point", "coordinates": [34.0157115, -12.3473189"] } }, 
"type": "feature", "properties": { "CBCC_Name": "Tikondane-KK1-049-038", "CBCC_REF": "KK1-049-038", "District": "Nkhotakota", "T/A": "Kafuzira", "GVH": "Nsansamuka", "Village": "Gonkhowe", "Latitude": "-12.2515225", "Longitude": "33.9910387"}, geometry": { "type": "Point", "coordinates": [33.9910387, -12.2515225"] } }, 
"type": "feature", "properties": { "CBCC_Name": "Vyamba", "CBCC_REF": "KK1-050-041", "District": "Nkhotakota", "T/A": "Kafuzira", "GVH": "Vyamba", "Village": "Eneya", "Latitude": "-12.24055", "Longitude": "33.9879096"}, geometry": { "type": "Point", "coordinates": [33.9879096, -12.24055"] } }, 
"type": "feature", "properties": { "CBCC_Name": "Balabalanthi", "CBCC_REF": "KK1-051-042", "District": "Nkhotakota", "T/A": "Kafuzira", "GVH": "Zagena", "Village": "Gidion", "Latitude": "-12.3180011", "Longitude": "33.8077938"}, geometry": { "type": "Point", "coordinates": [33.8077938, -12.3180011"] } }, 
"type": "feature", "properties": { "CBCC_Name": "Kaseka", "CBCC_REF": "SA1-003-003", "District": "Salima", "T/A": "Kalonga", "GVH": "Chimombo", "Village": "Peniasi", "Latitude": "-13.7434058", "Longitude": "34.5015856"}, geometry": { "type": "Point", "coordinates": [34.5015856, -13.7434058"] } }, 
"type": "feature", "properties": { "CBCC_Name": "Phindulathu", "CBCC_REF": "SA1-003-004", "District": "Salima", "T/A": "Kalonga", "GVH": "Chimombo", "Village": "Chimombo", "Latitude": "-13.7307703", "Longitude": "34.4870218"}, geometry": { "type": "Point", "coordinates": [34.4870218, -13.7307703"] } }, 
"type": "feature", "properties": { "CBCC_Name": "Zamba", "CBCC_REF": "SA1-011-012", "District": "Salima", "T/A": "Kalonga", "GVH": "Kazimbe", "Village": "Zamba", "Latitude": "-13.6956681", "Longitude": "34.3199181"}, geometry": { "type": "Point", "coordinates": [34.3199181, -13.6956681"] } }, 
"type": "feature", "properties": { "CBCC_Name": "Chiphazi", "CBCC_REF": "SA1-013-013", "District": "Salima", "T/A": "Kalonga", "GVH": "Kwanji", "Village": "Chiphazi", "Latitude": "-13.7026385", "Longitude": "34.4713847"}, geometry": { "type": "Point", "coordinates": [34.4713847, -13.7026385"] } }, 
"type": "feature", "properties": { "CBCC_Name": "Kwanji", "CBCC_REF": "SA1-013-014", "District": "Salima", "T/A": "Kalonga", "GVH": "Kwanji", "Village": "Kwanji", "Latitude": "-13.6999967", "Longitude": "34.4857475"}, geometry": { "type": "Point", "coordinates": [34.4857475, -13.6999967"] } }, 
"type": "feature", "properties": { "CBCC_Name": "Tigwilizane 1", "CBCC_REF": "SA1-014-015", "District": "Salima", "T/A": "Kalonga", "GVH": "Likongwe", "Village": "Likongwe", "Latitude": "-13.7307355", "Longitude": "34.4402739"}, geometry": { "type": "Point", "coordinates": [34.4402739, -13.7307355"] } }, 
"type": "feature", "properties": { "CBCC_Name": "Mkokota-SA1-017-016", "CBCC_REF": "SA1-017-016", "District": "Salima", "T/A": "Kalonga", "GVH": "Maomba", "Village": "Maonga", "Latitude": "-13.6854531", "Longitude": "34.3287765"}, geometry": { "type": "Point", "coordinates": [34.3287765, -13.6854531"] } }, 
"type": "feature", "properties": { "CBCC_Name": "Mlonde", "CBCC_REF": "SA1-017-017", "District": "Salima", "T/A": "Kalonga", "GVH": "Maomba", "Village": "Mkaka", "Latitude": "-13.695927", "Longitude": "34.3312764"}, geometry": { "type": "Point", "coordinates": [34.3312764, -13.695927"] } }, 
"type": "feature", "properties": { "CBCC_Name": "Thandizo Lathu", "CBCC_REF": "SA1-017-018", "District": "Salima", "T/A": "Kalonga", "GVH": "Maomba", "Village": "Mchocho", "Latitude": "-13.6809483", "Longitude": "34.3330153"}, geometry": { "type": "Point", "coordinates": [34.3330153, -13.6809483"] } }, 
"type": "feature", "properties": { "CBCC_Name": "Umodzi", "CBCC_REF": "SA1-017-019", "District": "Salima", "T/A": "Kalonga", "GVH": "Maomba", "Village": "Zamba", "Latitude": "-13.6850693", "Longitude": "34.3359528"}, geometry": { "type": "Point", "coordinates": [34.3359528, -13.6850693"] } }, 
"type": "feature", "properties": { "CBCC_Name": "Alinafe-SA1-018-020", "CBCC_REF": "SA1-018-020", "District": "Salima", "T/A": "Kalonga", "GVH": "Mapiko", "Village": "Chifuniro", "Latitude": "-13.6508137", "Longitude": "34.4627616"}, geometry": { "type": "Point", "coordinates": [34.4627616, -13.6508137"] } }, 
"type": "feature", "properties": { "CBCC_Name": "Madalitso-SA1-018-021", "CBCC_REF": "SA1-018-021", "District": "Salima", "T/A": "Kalonga", "GVH": "Mapiko", "Village": "Kapanda 2", "Latitude": "-13.6788881", "Longitude": "34.4222487"}, geometry": { "type": "Point", "coordinates": [34.4222487, -13.6788881"] } }, 
"type": "feature", "properties": { "CBCC_Name": "Mgwilizano", "CBCC_REF": "SA1-018-022", "District": "Salima", "T/A": "Kalonga", "GVH": "Mapiko", "Village": "Mapiko", "Latitude": "-13.6804276", "Longitude": "34.4275924"}, geometry": { "type": "Point", "coordinates": [34.4275924, -13.6804276"] } }, 
"type": "feature", "properties": { "CBCC_Name": "Tikondane 2-SA1-018-023", "CBCC_REF": "SA1-018-023", "District": "Salima", "T/A": "Kalonga", "GVH": "Mapiko", "Village": "Chiguduli", "Latitude": "-13.6663165", "Longitude": "34.4859614"}, geometry": { "type": "Point", "coordinates": [34.4859614, -13.6663165"] } }, 
"type": "feature", "properties": { "CBCC_Name": "Chigumukile", "CBCC_REF": "SA1-019-026", "District": "Salima", "T/A": "Kalonga", "GVH": "Mkhukhi", "Village": "Chankhwa", "Latitude": "-13.6953306", "Longitude": "34.3967922"}, geometry": { "type": "Point", "coordinates": [34.3967922, -13.6953306"] } }, 
"type": "feature", "properties": { "CBCC_Name": "Chivuwu-SA1-019-027", "CBCC_REF": "SA1-019-027", "District": "Salima", "T/A": "Kalonga", "GVH": "Mkhukhi", "Village": "Mkhuki 2", "Latitude": "-13.6793843", "Longitude": "34.4008425"}, geometry": { "type": "Point", "coordinates": [34.4008425, -13.6793843"] } }, 
"type": "feature", "properties": { "CBCC_Name": "Kachikumba", "CBCC_REF": "SA1-019-028", "District": "Salima", "T/A": "Kalonga", "GVH": "Mkhukhi", "Village": "Mkhukhi 2", "Latitude": "-13.6887844", "Longitude": "34.4004624"}, geometry": { "type": "Point", "coordinates": [34.4004624, -13.6887844"] } }, 
"type": "feature", "properties": { "CBCC_Name": "Kadale", "CBCC_REF": "SA1-019-029", "District": "Salima", "T/A": "Kalonga", "GVH": "Mkhukhi", "Village": "Ben 2", "Latitude": "-13.6400542", "Longitude": "34.4208746"}, geometry": { "type": "Point", "coordinates": [34.4208746, -13.6400542"] } }, 
"type": "feature", "properties": { "CBCC_Name": "Kankhande-SA1-019-030", "CBCC_REF": "SA1-019-030", "District": "Salima", "T/A": "Kalonga", "GVH": "Mkhukhi", "Village": "S_5", "Latitude": "-13.7059675", "Longitude": "34.3808257"}, geometry": { "type": "Point", "coordinates": [34.3808257, -13.7059675"] } }, 
"type": "feature", "properties": { "CBCC_Name": "Kayayata", "CBCC_REF": "SA1-019-031", "District": "Salima", "T/A": "Kalonga", "GVH": "Mkhukhi", "Village": "Khukhi 1", "Latitude": "-13.6895797", "Longitude": "34.398358"}, geometry": { "type": "Point", "coordinates": [34.398358, -13.6895797"] } }, 
"type": "feature", "properties": { "CBCC_Name": "Malayina", "CBCC_REF": "SA1-019-032", "District": "Salima", "T/A": "Kalonga", "GVH": "Mkhukhi", "Village": "Kayabwa", "Latitude": "-13.6644867", "Longitude": "34.3927656"}, geometry": { "type": "Point", "coordinates": [34.3927656, -13.6644867"] } }, 
"type": "feature", "properties": { "CBCC_Name": "Mgoza II", "CBCC_REF": "SA1-019-033", "District": "Salima", "T/A": "Kalonga", "GVH": "Mkhukhi", "Village": "S_5 West", "Latitude": "-13.6926135", "Longitude": "34.3644863"}, geometry": { "type": "Point", "coordinates": [34.3644863, -13.6926135"] } }, 
"type": "feature", "properties": { "CBCC_Name": "Msangu-SA1-019-034", "CBCC_REF": "SA1-019-034", "District": "Salima", "T/A": "Kalonga", "GVH": "Mkhukhi", "Village": "S5", "Latitude": "-13.7042228", "Longitude": "34.3664495"}, geometry": { "type": "Point", "coordinates": [34.3664495, -13.7042228"] } }, 
"type": "feature", "properties": { "CBCC_Name": "Mukachitabwino", "CBCC_REF": "SA1-019-035", "District": "Salima", "T/A": "Kalonga", "GVH": "Mkhukhi", "Village": "Kambandule", "Latitude": "-13.6687337", "Longitude": "34.3924098"}, geometry": { "type": "Point", "coordinates": [34.3924098, -13.6687337"] } }, 
"type": "feature", "properties": { "CBCC_Name": "Mulonde", "CBCC_REF": "SA1-019-036", "District": "Salima", "T/A": "Kalonga", "GVH": "Mkhukhi", "Village": "Kumisolo", "Latitude": "-13.6902153", "Longitude": "34.3990918"}, geometry": { "type": "Point", "coordinates": [34.3990918, -13.6902153"] } }, 
"type": "feature", "properties": { "CBCC_Name": "Takomana", "CBCC_REF": "SA1-019-037", "District": "Salima", "T/A": "Kalonga", "GVH": "Mkhukhi", "Village": "Mbuka", "Latitude": "-13.68728", "Longitude": "34.3692516"}, geometry": { "type": "Point", "coordinates": [34.3692516, -13.68728"] } }, 
"type": "feature", "properties": { "CBCC_Name": "Takumana-SA5-016-033", "CBCC_REF": "SA1-019-038", "District": "Salima", "T/A": "Kalonga", "GVH": "Mkhukhi", "Village": "S 3 North", "Latitude": "-13.6537074", "Longitude": "34.3955149"}, geometry": { "type": "Point", "coordinates": [34.3955149, -13.6537074"] } }, 
"type": "feature", "properties": { "CBCC_Name": "Thawale", "CBCC_REF": "SA1-019-039", "District": "Salima", "T/A": "Kalonga", "GVH": "Mkhukhi", "Village": "S_5", "Latitude": "-13.698524", "Longitude": "34.3832176"}, geometry": { "type": "Point", "coordinates": [34.3832176, -13.698524"] } }, 
"type": "feature", "properties": { "CBCC_Name": "Tigwilizane 2", "CBCC_REF": "SA1-019-040", "District": "Salima", "T/A": "Kalonga", "GVH": "Mkhukhi", "Village": "Nkhwangwa", "Latitude": "-13.6701855", "Longitude": "34.3971513"}, geometry": { "type": "Point", "coordinates": [34.3971513, -13.6701855"] } }, 
"type": "feature", "properties": { "CBCC_Name": "Tilimbike", "CBCC_REF": "SA1-019-041", "District": "Salima", "T/A": "Kalonga", "GVH": "Mkhukhi", "Village": "S3", "Latitude": "-13.6702467", "Longitude": "34.3850933"}, geometry": { "type": "Point", "coordinates": [34.3850933, -13.6702467"] } }, 
"type": "feature", "properties": { "CBCC_Name": "Tiwalere", "CBCC_REF": "SA1-019-042", "District": "Salima", "T/A": "Kalonga", "GVH": "Mkhukhi", "Village": "Mbawa2", "Latitude": "-13.6445467", "Longitude": "34.4062033"}, geometry": { "type": "Point", "coordinates": [34.4062033, -13.6445467"] } }, 
"type": "feature", "properties": { "CBCC_Name": "Tiyanjane 1", "CBCC_REF": "SA1-019-043", "District": "Salima", "T/A": "Kalonga", "GVH": "Mkhukhi", "Village": "S5 East", "Latitude": "-13.6954718", "Longitude": "34.37346"}, geometry": { "type": "Point", "coordinates": [34.37346, -13.6954718"] } }, 
"type": "feature", "properties": { "CBCC_Name": "Visanza", "CBCC_REF": "SA1-019-044", "District": "Salima", "T/A": "Kalonga", "GVH": "Mkhukhi", "Village": "Visanza", "Latitude": "-13.6463247", "Longitude": "34.4076684"}, geometry": { "type": "Point", "coordinates": [34.4076684, -13.6463247"] } }, 
"type": "feature", "properties": { "CBCC_Name": "Wamwayi ndi wamwayi", "CBCC_REF": "SA1-019-045", "District": "Salima", "T/A": "Kalonga", "GVH": "Mkhukhi", "Village": "Mkhukhi", "Latitude": "-13.6937391", "Longitude": "34.4126491"}, geometry": { "type": "Point", "coordinates": [34.4126491, -13.6937391"] } }, 
"type": "feature", "properties": { "CBCC_Name": "M'bwemba-SA1-023-050", "CBCC_REF": "SA1-023-050", "District": "Salima", "T/A": "Kalonga", "GVH": "Simayiwa", "Village": "Simaewa", "Latitude": "-13.7586637", "Longitude": "34.4720266"}, geometry": { "type": "Point", "coordinates": [34.4720266, -13.7586637"] } }, 
"type": "feature", "properties": { "CBCC_Name": "Tisatope", "CBCC_REF": "SA1-025-024", "District": "Salima", "T/A": "Kalonga", "GVH": "Mbalame", "Village": "Mbalame", "Latitude": "-13.726383", "Longitude": "34.4528826"}, geometry": { "type": "Point", "coordinates": [34.4528826, -13.726383"] } }, 
"type": "feature", "properties": { "CBCC_Name": "Ufulu", "CBCC_REF": "SA1-031-001", "District": "Salima", "T/A": "Kalonga", "GVH": "Chifuniro", "Village": "Loudon", "Latitude": "-13.6566462", "Longitude": "34.4589533"}, geometry": { "type": "Point", "coordinates": [34.4589533, -13.6566462"] } }, 
"type": "feature", "properties": { "CBCC_Name": "Maziko-SA1-032-002", "CBCC_REF": "SA1-032-002", "District": "Salima", "T/A": "Kalonga", "GVH": "Chikumba", "Village": "Mwalala", "Latitude": "-13.6708208", "Longitude": "34.3509117"}, geometry": { "type": "Point", "coordinates": [34.3509117, -13.6708208"] } }, 
"type": "feature", "properties": { "CBCC_Name": "Naphini-SA1-033-005", "CBCC_REF": "SA1-033-005", "District": "Salima", "T/A": "Kalonga", "GVH": "Chingoli", "Village": "Chingoli", "Latitude": "-13.7066671", "Longitude": "34.3405341"}, geometry": { "type": "Point", "coordinates": [34.3405341, -13.7066671"] } }, 
"type": "feature", "properties": { "CBCC_Name": "Kachere 3", "CBCC_REF": "SA1-034-006", "District": "Salima", "T/A": "Kalonga", "GVH": "Gadi", "Village": "Gadi", "Latitude": "-13.7226993", "Longitude": "34.3412834"}, geometry": { "type": "Point", "coordinates": [34.3412834, -13.7226993"] } }, 
"type": "feature", "properties": { "CBCC_Name": "Limbikani", "CBCC_REF": "SA1-035-007", "District": "Salima", "T/A": "Kalonga", "GVH": "Kalakadzombe", "Village": "Kalakadzombe", "Latitude": "-13.7446003", "Longitude": "34.4650107"}, geometry": { "type": "Point", "coordinates": [34.4650107, -13.7446003"] } }, 
"type": "feature", "properties": { "CBCC_Name": "Katawa-SA1-036-008", "CBCC_REF": "SA1-036-008", "District": "Salima", "T/A": "Kalonga", "GVH": "Kanzimbe", "Village": "Kanzimbe", "Latitude": "-13.7130811", "Longitude": "34.3170533"}, geometry": { "type": "Point", "coordinates": [34.3170533, -13.7130811"] } }, 
"type": "feature", "properties": { "CBCC_Name": "Chiteta-SA1-037-009", "CBCC_REF": "SA1-037-009", "District": "Salima", "T/A": "Kalonga", "GVH": "Kapanda", "Village": "Kapanda", "Latitude": "-13.6789946", "Longitude": "34.4195089"}, geometry": { "type": "Point", "coordinates": [34.4195089, -13.6789946"] } }, 
"type": "feature", "properties": { "CBCC_Name": "Kachere 2", "CBCC_REF": "SA1-037-010", "District": "Salima", "T/A": "Kalonga", "GVH": "Kapanda", "Village": "Mkombozi", "Latitude": "-13.685069", "Longitude": "34.4181384"}, geometry": { "type": "Point", "coordinates": [34.4181384, -13.685069"] } }, 
"type": "feature", "properties": { "CBCC_Name": "Tiyanjane 2", "CBCC_REF": "SA1-038-011", "District": "Salima", "T/A": "Kalonga", "GVH": "Kapundi", "Village": "Siliva", "Latitude": "-13.683873", "Longitude": "34.4839278"}, geometry": { "type": "Point", "coordinates": [34.4839278, -13.683873"] } }, 
"type": "feature", "properties": { "CBCC_Name": "Dewa", "CBCC_REF": "SA1-039-025", "District": "Salima", "T/A": "Kalonga", "GVH": "Mchepa", "Village": "Mchepa", "Latitude": "-13.7227131", "Longitude": "34.5069852"}, geometry": { "type": "Point", "coordinates": [34.5069852, -13.7227131"] } }, 
"type": "feature", "properties": { "CBCC_Name": "Kachere 1", "CBCC_REF": "SA1-040-046", "District": "Salima", "T/A": "Kalonga", "GVH": "Mpanje", "Village": "Mpanje", "Latitude": "-13.7420619", "Longitude": "34.4850405"}, geometry": { "type": "Point", "coordinates": [34.4850405, -13.7420619"] } }, 
"type": "feature", "properties": { "CBCC_Name": "Chisomo 1-SA1-041-051", "CBCC_REF": "SA1-041-051", "District": "Salima", "T/A": "Kalonga", "GVH": "Tembwe", "Village": "Tembwe", "Latitude": "-13.7202999", "Longitude": "34.4523812"}, geometry": { "type": "Point", "coordinates": [34.4523812, -13.7202999"] } }, 
"type": "feature", "properties": { "CBCC_Name": "Chisomo 2-SA1-042-052", "CBCC_REF": "SA1-042-052", "District": "Salima", "T/A": "Kalonga", "GVH": "Waya", "Village": "Waya", "Latitude": "-13.728738", "Longitude": "34.3070735"}, geometry": { "type": "Point", "coordinates": [34.3070735, -13.728738"] } }, 
"type": "feature", "properties": { "CBCC_Name": "Thetheke", "CBCC_REF": "SA1-043-053", "District": "Salima", "T/A": "Kalonga", "GVH": "Waya 2", "Village": "Tsoka", "Latitude": "-13.7306072", "Longitude": "34.2955308"}, geometry": { "type": "Point", "coordinates": [34.2955308, -13.7306072"] } }, 
"type": "feature", "properties": { "CBCC_Name": "Msikidzi-SA1-061-047", "CBCC_REF": "SA1-061-047", "District": "Salima", "T/A": "Kalonga", "GVH": "Mwalala", "Village": "Mwalala 2", "Latitude": "-13.6590485", "Longitude": "34.3407725"}, geometry": { "type": "Point", "coordinates": [34.3407725, -13.6590485"] } }, 
"type": "feature", "properties": { "CBCC_Name": "Mtondo-SA1-061-048", "CBCC_REF": "SA1-061-048", "District": "Salima", "T/A": "Kalonga", "GVH": "Mwalala", "Village": "Kapheni", "Latitude": "-13.669453", "Longitude": "34.3235234"}, geometry": { "type": "Point", "coordinates": [34.3235234, -13.669453"] } }, 
"type": "feature", "properties": { "CBCC_Name": "Tikondane 1", "CBCC_REF": "SA1-061-049", "District": "Salima", "T/A": "Kalonga", "GVH": "Mwalala", "Village": "Chimphedzu", "Latitude": "-13.672836", "Longitude": "34.3396054"}, geometry": { "type": "Point", "coordinates": [34.3396054, -13.672836"] } }, 
"type": "feature", "properties": { "CBCC_Name": "Ng'onga", "CBCC_REF": "CP1-001-001", "District": "Chitipa", "T/A": "Kameme", "GVH": "Adam", "Village": "Adam 3", "Latitude": "-9.6173628", "Longitude": "33.0868335"}, geometry": { "type": "Point", "coordinates": [33.0868335, -9.6173628"] } }, 
"type": "feature", "properties": { "CBCC_Name": "Alinuswe", "CBCC_REF": "CP1-002-002", "District": "Chitipa", "T/A": "Kameme", "GVH": "Amon", "Village": "Phillip 4", "Latitude": "-9.6057669", "Longitude": "33.1454484"}, geometry": { "type": "Point", "coordinates": [33.1454484, -9.6057669"] } }, 
"type": "feature", "properties": { "CBCC_Name": "Bulote", "CBCC_REF": "CP1-002-003", "District": "Chitipa", "T/A": "Kameme", "GVH": "Amon", "Village": "Amon 5", "Latitude": "-9.5590779", "Longitude": "33.1542321"}, geometry": { "type": "Point", "coordinates": [33.1542321, -9.5590779"] } }, 
"type": "feature", "properties": { "CBCC_Name": "Chimwemwe-CP1-002-004", "CBCC_REF": "CP1-002-004", "District": "Chitipa", "T/A": "Kameme", "GVH": "Amon", "Village": "Amon 4", "Latitude": "-9.5935708", "Longitude": "33.1759609"}, geometry": { "type": "Point", "coordinates": [33.1759609, -9.5935708"] } }, 
"type": "feature", "properties": { "CBCC_Name": "Lusonyondo", "CBCC_REF": "CP1-002-005", "District": "Chitipa", "T/A": "Kameme", "GVH": "Amon", "Village": "Amon 3", "Latitude": "-9.5957906", "Longitude": "33.1428707"}, geometry": { "type": "Point", "coordinates": [33.1428707, -9.5957906"] } }, 
"type": "feature", "properties": { "CBCC_Name": "Malanzi", "CBCC_REF": "CP1-002-006", "District": "Chitipa", "T/A": "Kameme", "GVH": "Amon", "Village": "Phillip 5", "Latitude": "-9.5610281", "Longitude": "33.1744207"}, geometry": { "type": "Point", "coordinates": [33.1744207, -9.5610281"] } }, 
"type": "feature", "properties": { "CBCC_Name": "Nahatoyi", "CBCC_REF": "CP1-002-007", "District": "Chitipa", "T/A": "Kameme", "GVH": "Amon", "Village": "Phillip 1", "Latitude": "-9.6062181", "Longitude": "33.1534027"}, geometry": { "type": "Point", "coordinates": [33.1534027, -9.6062181"] } }, 
"type": "feature", "properties": { "CBCC_Name": "Nahayombo", "CBCC_REF": "CP1-002-008", "District": "Chitipa", "T/A": "Kameme", "GVH": "Amon", "Village": "Amon 2", "Latitude": "-9.5515167", "Longitude": "33.1532518"}, geometry": { "type": "Point", "coordinates": [33.1532518, -9.5515167"] } }, 
"type": "feature", "properties": { "CBCC_Name": "Nthyela", "CBCC_REF": "CP1-002-009", "District": "Chitipa", "T/A": "Kameme", "GVH": "Amon", "Village": "Amon 9", "Latitude": "-9.6025188", "Longitude": "33.1596406"}, geometry": { "type": "Point", "coordinates": [33.1596406, -9.6025188"] } }, 
"type": "feature", "properties": { "CBCC_Name": "Tufikepo", "CBCC_REF": "CP1-002-010", "District": "Chitipa", "T/A": "Kameme", "GVH": "Amon", "Village": "Phillip 3", "Latitude": "-9.6038184", "Longitude": "33.1351227"}, geometry": { "type": "Point", "coordinates": [33.1351227, -9.6038184"] } }, 
"type": "feature", "properties": { "CBCC_Name": "Tutulane-CP1-002-011", "CBCC_REF": "CP1-002-011", "District": "Chitipa", "T/A": "Kameme", "GVH": "Amon", "Village": "Amon 3", "Latitude": "-9.5718548", "Longitude": "33.1621121"}, geometry": { "type": "Point", "coordinates": [33.1621121, -9.5718548"] } }, 
"type": "feature", "properties": { "CBCC_Name": "Zamamba", "CBCC_REF": "CP1-002-012", "District": "Chitipa", "T/A": "Kameme", "GVH": "Amon", "Village": "Amon 1", "Latitude": "-9.5807463", "Longitude": "33.1639268"}, geometry": { "type": "Point", "coordinates": [33.1639268, -9.5807463"] } }, 
"type": "feature", "properties": { "CBCC_Name": "Chipolopolo", "CBCC_REF": "CP1-004-013", "District": "Chitipa", "T/A": "Kameme", "GVH": "Ipenza", "Village": "Ibuzya 5", "Latitude": "-9.5070639", "Longitude": "33.137354"}, geometry": { "type": "Point", "coordinates": [33.137354, -9.5070639"] } }, 
"type": "feature", "properties": { "CBCC_Name": "Future", "CBCC_REF": "CP1-004-014", "District": "Chitipa", "T/A": "Kameme", "GVH": "Ipenza", "Village": "Ibuzya", "Latitude": "-9.5057261", "Longitude": "33.1178711"}, geometry": { "type": "Point", "coordinates": [33.1178711, -9.5057261"] } }, 
"type": "feature", "properties": { "CBCC_Name": "Halowe", "CBCC_REF": "CP1-004-015", "District": "Chitipa", "T/A": "Kameme", "GVH": "Ipenza", "Village": "Ipenza 2", "Latitude": "-9.4834462", "Longitude": "33.1068779"}, geometry": { "type": "Point", "coordinates": [33.1068779, -9.4834462"] } }, 
"type": "feature", "properties": { "CBCC_Name": "Isokania", "CBCC_REF": "CP1-004-016", "District": "Chitipa", "T/A": "Kameme", "GVH": "Ipenza", "Village": "Ibuzya 2", "Latitude": "-9.4922263", "Longitude": "33.1300741"}, geometry": { "type": "Point", "coordinates": [33.1300741, -9.4922263"] } }, 
"type": "feature", "properties": { "CBCC_Name": "Luteghano-CP1-004-017", "CBCC_REF": "CP1-004-017", "District": "Chitipa", "T/A": "Kameme", "GVH": "Ipenza", "Village": "Ipenza 1", "Latitude": "-9.4659327", "Longitude": "33.0976062"}, geometry": { "type": "Point", "coordinates": [33.0976062, -9.4659327"] } }, 
"type": "feature", "properties": { "CBCC_Name": "Mtchembo", "CBCC_REF": "CP1-004-018", "District": "Chitipa", "T/A": "Kameme", "GVH": "Ipenza", "Village": "Ipenza  3", "Latitude": "-9.450536", "Longitude": "33.0814468"}, geometry": { "type": "Point", "coordinates": [33.0814468, -9.450536"] } }, 
"type": "feature", "properties": { "CBCC_Name": "Namitwa", "CBCC_REF": "CP1-004-019", "District": "Chitipa", "T/A": "Kameme", "GVH": "Ipenza", "Village": "Ibuzya III", "Latitude": "-9.5031125", "Longitude": "33.1271459"}, geometry": { "type": "Point", "coordinates": [33.1271459, -9.5031125"] } }, 
"type": "feature", "properties": { "CBCC_Name": "Samu", "CBCC_REF": "CP1-004-020", "District": "Chitipa", "T/A": "Kameme", "GVH": "Ipenza", "Village": "Ibuzya 4", "Latitude": "-9.491554", "Longitude": "33.1208193"}, geometry": { "type": "Point", "coordinates": [33.1208193, -9.491554"] } }, 
"type": "feature", "properties": { "CBCC_Name": "Kapata-CP1-005-021", "CBCC_REF": "CP1-005-021", "District": "Chitipa", "T/A": "Kameme", "GVH": "Iyanga", "Village": "Yanga 6", "Latitude": "-9.4560343", "Longitude": "32.9800755"}, geometry": { "type": "Point", "coordinates": [32.9800755, -9.4560343"] } }, 
"type": "feature", "properties": { "CBCC_Name": "Nkhanire", "CBCC_REF": "CP1-005-022", "District": "Chitipa", "T/A": "Kameme", "GVH": "Iyanga", "Village": "Yanga 2", "Latitude": "-9.4565258", "Longitude": "32.9622276"}, geometry": { "type": "Point", "coordinates": [32.9622276, -9.4565258"] } }, 
"type": "feature", "properties": { "CBCC_Name": "Itengula", "CBCC_REF": "CP1-006-023", "District": "Chitipa", "T/A": "Kameme", "GVH": "James", "Village": "Muyimbo 2", "Latitude": "-9.5801096", "Longitude": "33.0351269"}, geometry": { "type": "Point", "coordinates": [33.0351269, -9.5801096"] } }, 
"type": "feature", "properties": { "CBCC_Name": "Mlangeni", "CBCC_REF": "CP1-006-024", "District": "Chitipa", "T/A": "Kameme", "GVH": "James", "Village": "James 7", "Latitude": "-9.6272622", "Longitude": "33.068503"}, geometry": { "type": "Point", "coordinates": [33.068503, -9.6272622"] } }, 
"type": "feature", "properties": { "CBCC_Name": "Pumphi", "CBCC_REF": "CP1-006-025", "District": "Chitipa", "T/A": "Kameme", "GVH": "James", "Village": "James 4", "Latitude": "-9.6146644", "Longitude": "33.0577888"}, geometry": { "type": "Point", "coordinates": [33.0577888, -9.6146644"] } }, 
"type": "feature", "properties": { "CBCC_Name": "Bandawe", "CBCC_REF": "CP1-007-026", "District": "Chitipa", "T/A": "Kameme", "GVH": "Jeremiah", "Village": "Iyanga 3", "Latitude": "-9.4259371", "Longitude": "33.0476933"}, geometry": { "type": "Point", "coordinates": [33.0476933, -9.4259371"] } }, 
"type": "feature", "properties": { "CBCC_Name": "Manyala", "CBCC_REF": "CP1-007-027", "District": "Chitipa", "T/A": "Kameme", "GVH": "Jeremiah", "Village": "Tauzeni", "Latitude": "-9.4036046", "Longitude": "33.0199879"}, geometry": { "type": "Point", "coordinates": [33.0199879, -9.4036046"] } }, 
"type": "feature", "properties": { "CBCC_Name": "Naminango", "CBCC_REF": "CP1-007-028", "District": "Chitipa", "T/A": "Kameme", "GVH": "Jeremiah", "Village": "Mkoma 1", "Latitude": "-9.3956757", "Longitude": "33.0134319"}, geometry": { "type": "Point", "coordinates": [33.0134319, -9.3956757"] } }, 
"type": "feature", "properties": { "CBCC_Name": "Namumbo", "CBCC_REF": "CP1-007-029", "District": "Chitipa", "T/A": "Kameme", "GVH": "Jeremiah", "Village": "Born Mwang'amba", "Latitude": "-9.4214537", "Longitude": "33.0382334"}, geometry": { "type": "Point", "coordinates": [33.0382334, -9.4214537"] } }, 
"type": "feature", "properties": { "CBCC_Name": "Nanyiru", "CBCC_REF": "CP1-007-030", "District": "Chitipa", "T/A": "Kameme", "GVH": "Jeremiah", "Village": "Iyanga 11", "Latitude": "-9.4374106", "Longitude": "33.0615328"}, geometry": { "type": "Point", "coordinates": [33.0615328, -9.4374106"] } }, 
"type": "feature", "properties": { "CBCC_Name": "Wikomera", "CBCC_REF": "CP1-007-031", "District": "Chitipa", "T/A": "Kameme", "GVH": "Jeremiah", "Village": "Watson", "Latitude": "-9.4142579", "Longitude": "33.0319502"}, geometry": { "type": "Point", "coordinates": [33.0319502, -9.4142579"] } }, 
"type": "feature", "properties": { "CBCC_Name": "Kapembe", "CBCC_REF": "CP1-008-032", "District": "Chitipa", "T/A": "Kameme", "GVH": "Kenani", "Village": "Kenan 3", "Latitude": "-9.4840621", "Longitude": "32.9608249"}, geometry": { "type": "Point", "coordinates": [32.9608249, -9.4840621"] } }, 
"type": "feature", "properties": { "CBCC_Name": "Kamupusike", "CBCC_REF": "CP1-010-034", "District": "Chitipa", "T/A": "Kameme", "GVH": "Navitengo", "Village": "Navitengo 2", "Latitude": "-9.5269885", "Longitude": "33.1674211"}, geometry": { "type": "Point", "coordinates": [33.1674211, -9.5269885"] } }, 
"type": "feature", "properties": { "CBCC_Name": "Mictoria", "CBCC_REF": "CP1-010-035", "District": "Chitipa", "T/A": "Kameme", "GVH": "Navitengo", "Village": "Samuel 3", "Latitude": "-9.5345717", "Longitude": "33.1481245"}, geometry": { "type": "Point", "coordinates": [33.1481245, -9.5345717"] } }, 
"type": "feature", "properties": { "CBCC_Name": "Mwawi", "CBCC_REF": "CP1-010-036", "District": "Chitipa", "T/A": "Kameme", "GVH": "Navitengo", "Village": "Nang'ambi 2", "Latitude": "-9.5206053", "Longitude": "33.1477146"}, geometry": { "type": "Point", "coordinates": [33.1477146, -9.5206053"] } }, 
"type": "feature", "properties": { "CBCC_Name": "Nakaswilili", "CBCC_REF": "CP1-010-037", "District": "Chitipa", "T/A": "Kameme", "GVH": "Navitengo", "Village": "Navitengo 4", "Latitude": "-9.5058482", "Longitude": "33.1573172"}, geometry": { "type": "Point", "coordinates": [33.1573172, -9.5058482"] } }, 
"type": "feature", "properties": { "CBCC_Name": "Namunthala", "CBCC_REF": "CP1-010-038", "District": "Chitipa", "T/A": "Kameme", "GVH": "Navitengo", "Village": "Nang'ambi", "Latitude": "-9.5480706", "Longitude": "33.1606907"}, geometry": { "type": "Point", "coordinates": [33.1606907, -9.5480706"] } }, 
"type": "feature", "properties": { "CBCC_Name": "Navitengo 1", "CBCC_REF": "CP1-010-039", "District": "Chitipa", "T/A": "Kameme", "GVH": "Navitengo", "Village": "Navitengo 1", "Latitude": "-9.5057814", "Longitude": "33.1623976"}, geometry": { "type": "Point", "coordinates": [33.1623976, -9.5057814"] } }, 
"type": "feature", "properties": { "CBCC_Name": "Navitengo 3", "CBCC_REF": "CP1-010-040", "District": "Chitipa", "T/A": "Kameme", "GVH": "Navitengo", "Village": "Navitengo 3", "Latitude": "-9.5038285", "Longitude": "33.1576054"}, geometry": { "type": "Point", "coordinates": [33.1576054, -9.5038285"] } }, 
"type": "feature", "properties": { "CBCC_Name": "Navitengo 5", "CBCC_REF": "CP1-010-041", "District": "Chitipa", "T/A": "Kameme", "GVH": "Navitengo", "Village": "Navitengo 5", "Latitude": "-9.512338", "Longitude": "33.1611113"}, geometry": { "type": "Point", "coordinates": [33.1611113, -9.512338"] } }, 
"type": "feature", "properties": { "CBCC_Name": "Chikondi-CP1-010-033", "CBCC_REF": "CP1-010-033", "District": "Chitipa", "T/A": "Kameme", "GVH": "Navitengo", "Village": "Samuel 4", "Latitude": "-9.54331", "Longitude": "33.1506844"}, geometry": { "type": "Point", "coordinates": [33.1506844, -9.54331"] } },